picid,title,author,date,lat,lon,scenicness,thumbnail
5138,"Stoke, Coventry",David Stowell,2005-04-22,52.406922,-1.470763,1.70,http://s2.geograph.org.uk/photos/00/51/005138_50f7676d_120x120.jpg
5517,Pillar Box at the junction of Beake Avenue and Rylston Avenue,Dave and Vicky,2005-04-24,52.439329,-1.523186,1.55,http://s1.geograph.org.uk/photos/00/55/005517_3396f936_120x120.jpg
5520,Looking down Beake Avenue from the junction with Rylston Avenue,Dave and Vicky,2005-04-24,52.437259,-1.522473,1.46,http://s0.geograph.org.uk/photos/00/55/005520_31483887_120x120.jpg
18266,Ball Hill,Kevin Croucher,2005-06-13,52.409671,-1.482491,1.27,http://s2.geograph.org.uk/photos/01/82/018266_aa536834_120x120.jpg
18271,"St Michael's Church, Stoke",Kevin Croucher,2005-06-13,52.411886,-1.475114,3.71,http://s3.geograph.org.uk/photos/01/82/018271_d9855482_120x120.jpg
18275,Rose and Crown,Kevin Croucher,2005-06-13,52.411078,-1.475417,2.19,http://s3.geograph.org.uk/photos/01/82/018275_f5f4ad4f_120x120.jpg
18276,Ansty Road,Kevin Croucher,2005-06-13,52.414114,-1.470677,2.57,http://s0.geograph.org.uk/photos/01/82/018276_595ca727_120x120.jpg
18278,The Walsgrave,Kevin Croucher,2005-06-13,52.413936,-1.47112,2.44,http://s2.geograph.org.uk/photos/01/82/018278_e343f36e_120x120.jpg
18354,"St Mary Magdalene, Wyken",Kevin Croucher,2005-06-13,52.423605,-1.462328,3.96,http://s2.geograph.org.uk/photos/01/83/018354_a217d6a8_120x120.jpg
18358,Wyken Croft Nature Park,Kevin Croucher,2005-06-13,52.421279,-1.464709,3.77,http://s2.geograph.org.uk/photos/01/83/018358_5d835476_120x120.jpg
18361,Henley College,Kevin Croucher,2005-06-13,52.432535,-1.468838,1.05,http://s1.geograph.org.uk/photos/01/83/018361_4ce22f7f_120x120.jpg
18363,Courthouse Green,Kevin Croucher,2005-06-13,52.428462,-1.483006,1.27,http://s3.geograph.org.uk/photos/01/83/018363_c78c091a_120x120.jpg
18365,Stoke Heath,Kevin Croucher,2005-06-13,52.423168,-1.485274,4.17,http://s1.geograph.org.uk/photos/01/83/018365_74f23a18_120x120.jpg
18368,Red Lane Ordnance Works,Kevin Croucher,2005-06-13,52.420053,-1.492515,1.59,http://s0.geograph.org.uk/photos/01/83/018368_d5ffc924_120x120.jpg
18369,Inside the Ordnance Works,Kevin Croucher,2005-06-13,52.418705,-1.492677,1.07,http://s1.geograph.org.uk/photos/01/83/018369_39a0957b_120x120.jpg
18374,Highfield Road Stadium,Kevin Croucher,2005-06-13,52.411325,-1.490704,0.68,http://s2.geograph.org.uk/photos/01/83/018374_f2355a06_120x120.jpg
18381,Gosford Green,Kevin Croucher,2005-06-13,52.40881,-1.491321,4.08,http://s1.geograph.org.uk/photos/01/83/018381_70ce3925_120x120.jpg
18386,The Biggin Hall,Kevin Croucher,2005-06-13,52.407014,-1.471203,2.55,http://s2.geograph.org.uk/photos/01/83/018386_7197978d_120x120.jpg
18964,Marconi - New Century Park,Kevin Croucher,2005-06-14,52.40268,-1.467139,1.29,http://s0.geograph.org.uk/photos/01/89/018964_1945ddea_120x120.jpg
19031,Coventry Council House,Kevin Croucher,2005-06-15,52.406188,-1.508991,3.06,http://s3.geograph.org.uk/photos/01/90/019031_a89262e9_120x120.jpg
19036,Coventry Cathedral,Kevin Croucher,2005-06-15,52.407979,-1.507501,2.82,http://s0.geograph.org.uk/photos/01/90/019036_86dfe089_120x120.jpg
19042,Coventry War Memorial,Kevin Croucher,2005-06-15,52.393644,-1.519417,3.56,http://s2.geograph.org.uk/photos/01/90/019042_fd4ed225_120x120.jpg
19050,City College Coventry,Kevin Croucher,2005-06-15,52.406248,-1.52369,1.72,http://s2.geograph.org.uk/photos/01/90/019050_29a5bb6f_120x120.jpg
19051,Alvis,Kevin Croucher,2005-06-15,52.411659,-1.528042,1.79,http://s3.geograph.org.uk/photos/01/90/019051_057cc2a2_120x120.jpg
27504,The Alan Higgs sports centre,David Stowell,2005-07-15,52.392538,-1.470935,1.26,http://s0.geograph.org.uk/photos/02/75/027504_c528565f_120x120.jpg
27506,"Asda supermarket, Whitley, Coventry",David Stowell,2005-07-15,52.3899,-1.484191,1.07,http://s2.geograph.org.uk/photos/02/75/027506_4912042c_120x120.jpg
27509,Grounds at Alan Higgs sports centre,David Stowell,2005-07-15,52.392551,-1.473874,2.77,http://s1.geograph.org.uk/photos/02/75/027509_f796125e_120x120.jpg
27511,Jaguar's Whitley Plant,David Stowell,2005-07-15,52.385443,-1.493059,1.40,http://s3.geograph.org.uk/photos/02/75/027511_87037014_120x120.jpg
29347,"The Cocked Hat, Binley",David Stowell,2005-07-21,52.395065,-1.434165,3.42,http://s3.geograph.org.uk/photos/02/93/029347_23866255_120x120.jpg
29349,"DIY store, Binley",David Stowell,2005-07-21,52.395065,-1.434165,0.88,http://s1.geograph.org.uk/photos/02/93/029349_e40a2c96_120x120.jpg
30022,"Kenpas Highway, Coventry",David Stowell,2005-07-23,52.379255,-1.518104,1.50,http://s2.geograph.org.uk/photos/03/00/030022_160efdeb_120x120.jpg
30024,Finham Petrol Station,David Stowell,2005-07-23,52.379249,-1.516635,0.93,http://s0.geograph.org.uk/photos/03/00/030024_5a0a4481_120x120.jpg
30025,"Green Lane, Styvechale, Coventry",David Stowell,2005-07-23,52.383791,-1.528339,1.11,http://s1.geograph.org.uk/photos/03/00/030025_285007f2_120x120.jpg
30026,"Tutbury Avenue, Canley",David Stowell,2005-07-23,52.384753,-1.54449,2.44,http://s2.geograph.org.uk/photos/03/00/030026_037555d7_120x120.jpg
30028,Canley Cemetery,David Stowell,2005-07-23,52.388366,-1.548861,2.81,http://s0.geograph.org.uk/photos/03/00/030028_e260c294_120x120.jpg
30029,"Sir Henry Parkes Road, Canley",David Stowell,2005-07-23,52.39108,-1.553242,2.12,http://s1.geograph.org.uk/photos/03/00/030029_1dc484ed_120x120.jpg
30030,"Coventry Business Park, Canley",David Stowell,2005-07-23,52.400047,-1.547273,1.20,http://s2.geograph.org.uk/photos/03/00/030030_c7539cfd_120x120.jpg
30031,"Hearsall Common, Coventry",David Stowell,2005-07-23,52.402704,-1.536956,3.06,http://s3.geograph.org.uk/photos/03/00/030031_49328763_120x120.jpg
30032,"Chapel Fields, Coventry",David Stowell,2005-07-23,52.40811,-1.53984,2.76,http://s0.geograph.org.uk/photos/03/00/030032_9363793e_120x120.jpg
30033,"Grayswood Avenue, Coventry",David Stowell,2005-07-23,52.412639,-1.548614,2.07,http://s1.geograph.org.uk/photos/03/00/030033_b29d26cc_120x120.jpg
30035,"St Barbara's, Earlsdon",David Stowell,2005-07-23,52.396417,-1.538492,2.21,http://s3.geograph.org.uk/photos/03/00/030035_89468aae_120x120.jpg
30037,"Kenilworth Road, Coventry",David Stowell,2005-07-23,52.37487,-1.546061,3.06,http://s1.geograph.org.uk/photos/03/00/030037_e91307da_120x120.jpg
30039,Gibbet Hill Farm building at Warwick University,David Stowell,2005-07-23,52.373999,-1.553414,2.61,http://s3.geograph.org.uk/photos/03/00/030039_6b390932_120x120.jpg
30040,Gibbet Hill Crossroads,David Stowell,2005-07-23,52.370392,-1.550513,1.85,http://s0.geograph.org.uk/photos/03/00/030040_f3fe58b9_120x120.jpg
31870,"Charter House, Coventry",David Stowell,2005-07-30,52.398934,-1.494374,3.62,http://s2.geograph.org.uk/photos/03/18/031870_00b37b65_120x120.jpg
31871,"Charter House pub, Coventry",David Stowell,2005-07-30,52.400726,-1.492884,3.12,http://s3.geograph.org.uk/photos/03/18/031871_02901771_120x120.jpg
31872,Playing Fields by the River Sherbourne,David Stowell,2005-07-30,52.399839,-1.495833,3.59,http://s0.geograph.org.uk/photos/03/18/031872_18af2f48_120x120.jpg
31874,"London Road, Whitley, Coventry",David Stowell,2005-07-30,52.392641,-1.494446,2.57,http://s2.geograph.org.uk/photos/03/18/031874_61d84d8e_120x120.jpg
31875,"Christ Church, Cheylesmore, Coventry",David Stowell,2005-07-30,52.393553,-1.497374,1.45,http://s3.geograph.org.uk/photos/03/18/031875_7bc66aed_120x120.jpg
31876,"Shopping parade, Cheylesmore",David Stowell,2005-07-30,52.39359,-1.506191,1.62,http://s0.geograph.org.uk/photos/03/18/031876_f2880b88_120x120.jpg
31877,"Quinton Park, Cheylesmore",David Stowell,2005-07-30,52.391792,-1.506211,4.44,http://s1.geograph.org.uk/photos/03/18/031877_1439d229_120x120.jpg
31878,"Cheylesmore, Coventry",David Stowell,2005-07-30,52.392697,-1.507671,1.72,http://s2.geograph.org.uk/photos/03/18/031878_3fdf5712_120x120.jpg
31879,"St Jame's Church, Styvechale, Coventry",David Stowell,2005-07-30,52.388238,-1.516537,3.69,http://s3.geograph.org.uk/photos/03/18/031879_07c096c6_120x120.jpg
31881,"Leamington Road, Styvechale, Coventry",David Stowell,2005-07-30,52.387339,-1.516546,2.23,http://s1.geograph.org.uk/photos/03/18/031881_7870c5dd_120x120.jpg
31882,"Coat of Arms Bridge, Coventry",David Stowell,2005-07-30,52.387369,-1.523893,3.44,http://s2.geograph.org.uk/photos/03/18/031882_e00bb577_120x120.jpg
31883,House on Coat of Arms Bridge Road,David Stowell,2005-07-30,52.387363,-1.522423,3.38,http://s3.geograph.org.uk/photos/03/18/031883_5a0b3811_120x120.jpg
33870,"Gainford Rise, Binley",David Stowell,2005-08-05,52.408578,-1.439872,1.80,http://s2.geograph.org.uk/photos/03/38/033870_d7a18d2d_120x120.jpg
33872,"Belgrave Road, Wyken",David Stowell,2005-08-05,52.414047,-1.455975,1.39,http://s0.geograph.org.uk/photos/03/38/033872_82519131_120x120.jpg
33877,The Caludon,David Stowell,2005-08-05,52.41404,-1.454505,1.76,http://s1.geograph.org.uk/photos/03/38/033877_47ea6887_120x120.jpg
33881,"St Bartholomew's, Binley",David Stowell,2005-08-05,52.402326,-1.44877,3.36,http://s1.geograph.org.uk/photos/03/38/033881_98d3e7cf_120x120.jpg
33885,"Princethorpe Way, Binley",David Stowell,2005-08-05,52.396966,-1.456185,1.80,http://s1.geograph.org.uk/photos/03/38/033885_53fb5bea_120x120.jpg
33888,Stoke Green,David Stowell,2005-08-05,52.405182,-1.484013,2.71,http://s0.geograph.org.uk/photos/03/38/033888_685307cd_120x120.jpg
33891,"Stoke Green, Coventry",David Stowell,2005-08-05,52.406075,-1.482533,3.78,http://s3.geograph.org.uk/photos/03/38/033891_c63fcfb8_120x120.jpg
33892,"Craven Arms, Binley",David Stowell,2005-08-05,52.402319,-1.4473,2.37,http://s0.geograph.org.uk/photos/03/38/033892_8e15616f_120x120.jpg
33894,"New development, Binley",David Stowell,2005-08-05,52.402313,-1.445831,2.47,http://s2.geograph.org.uk/photos/03/38/033894_f6c4a2c8_120x120.jpg
34678,"London Road, Coventry",David Stowell,2005-08-06,52.385379,-1.478367,1.64,http://s2.geograph.org.uk/photos/03/46/034678_af9da534_120x120.jpg
34681,Whitley Pumping station,David Stowell,2005-08-06,52.385373,-1.476897,3.68,http://s1.geograph.org.uk/photos/03/46/034681_479c9e77_120x120.jpg
34685,"Old Houses, St James lane",David Stowell,2005-08-06,52.383495,-1.459289,2.40,http://s1.geograph.org.uk/photos/03/46/034685_c1dbd651_120x120.jpg
34692,Tollbar End roundabout,David Stowell,2005-08-06,52.377236,-1.466711,1.20,http://s0.geograph.org.uk/photos/03/46/034692_43188bdf_120x120.jpg
34696,"Hepworth Road, Binley",David Stowell,2005-08-07,52.401379,-1.438493,2.23,http://s0.geograph.org.uk/photos/03/46/034696_11df7a68_120x120.jpg
36058,"Site of Canley Level Crossing, Coventry",David Stowell,2005-07-23,52.399154,-1.548751,2.00,http://s2.geograph.org.uk/photos/03/60/036058_9ae32dc6_120x120.jpg
36060,Warwick University Medical Teaching Centre,David Stowell,2005-07-23,52.373999,-1.553414,1.31,http://s0.geograph.org.uk/photos/03/60/036060_86ed96d7_120x120.jpg
36765,Coventry City Centre,Sue Adair,2003-02-04,52.408255,-1.508968,3.70,http://s1.geograph.org.uk/photos/03/67/036765_c108c2bc_120x120.jpg
36771,"Cottages Wilsons Lane, Longford",Sue Adair,2003-02-03,52.455556,-1.490783,3.20,http://s3.geograph.org.uk/photos/03/67/036771_b148b609_120x120.jpg
36798,Coventry Shopping Precinct,Sue Adair,2003-02-04,52.408004,-1.513381,1.82,http://s2.geograph.org.uk/photos/03/67/036798_b0d4ba98_120x120.jpg
44107,Warwick Arts Centre,David Stowell,2005-08-27,52.378527,-1.562183,1.51,http://s3.geograph.org.uk/photos/04/41/044107_2067f31d_120x120.jpg
45935,Tile Hill Station and new bridge,David Stowell,2005-08-29,52.394834,-1.597292,1.43,http://s3.geograph.org.uk/photos/04/59/045935_958896ef_120x120.jpg
45939,"Scarborough Way, Canley, Coventry",David Stowell,2005-08-29,52.392975,-1.579674,1.39,http://s3.geograph.org.uk/photos/04/59/045939_08d8640e_120x120.jpg
45943,"Two churches, some shops and a pub, Charter Avenue, Canley",David Stowell,2005-08-29,52.392055,-1.573805,1.70,http://s3.geograph.org.uk/photos/04/59/045943_e2449f23_120x120.jpg
47049,"Massey Ferguson, Banner Lane, Coventry",David Stowell,2005-08-29,52.410122,-1.598623,1.15,http://s1.geograph.org.uk/photos/04/70/047049_4622f29b_120x120.jpg
47051,"Massey Ferguson, Banner Lane, Coventry",David Stowell,2005-08-29,52.409218,-1.597161,1.42,http://s3.geograph.org.uk/photos/04/70/047051_bae7abf0_120x120.jpg
47168,Demolition at Massey Ferguson,David Stowell,2005-08-29,52.408319,-1.597169,1.78,http://s0.geograph.org.uk/photos/04/71/047168_2312f404_120x120.jpg
47171,"Massey Ferguson, Banner Lane, Coventry",David Stowell,2005-08-29,52.410117,-1.597153,1.53,http://s3.geograph.org.uk/photos/04/71/047171_5652677a_120x120.jpg
48236,Tile Hill College,David Stowell,2005-08-29,52.401055,-1.576658,1.18,http://s0.geograph.org.uk/photos/04/82/048236_8b9d224c_120x120.jpg
48238,Tile Hill Lane,David Stowell,2005-08-29,52.401959,-1.578119,1.89,http://s2.geograph.org.uk/photos/04/82/048238_7d7ed855_120x120.jpg
48243,Lime Tree Park,David Stowell,2005-08-29,52.405513,-1.566326,1.38,http://s3.geograph.org.uk/photos/04/82/048243_413207bd_120x120.jpg
48248,"Gaza Close, Tile Hill, Coventry",David Stowell,2005-08-29,52.402837,-1.572231,1.74,http://s0.geograph.org.uk/photos/04/82/048248_8b4c3e31_120x120.jpg
48249,"Mount Nod, Coventry",David Stowell,2005-08-29,52.408204,-1.564829,2.52,http://s1.geograph.org.uk/photos/04/82/048249_a47637ea_120x120.jpg
48252,"Lower Eastern Green, Coventry",David Stowell,2005-08-29,52.410907,-1.566273,1.23,http://s0.geograph.org.uk/photos/04/82/048252_36da508f_120x120.jpg
48255,"Unicorn Avenue, Lower Eastern Green",David Stowell,2005-08-29,52.41455,-1.579469,1.34,http://s3.geograph.org.uk/photos/04/82/048255_13098fbc_120x120.jpg
48260,"Good Shepherd Lutheran Church, Lower Eastern Green",David Stowell,2005-08-29,52.414545,-1.577999,2.80,http://s0.geograph.org.uk/photos/04/82/048260_e35331a7_120x120.jpg
48262,"Old Cottages, Lower Eastern Green, Coventry",David Stowell,2005-08-29,52.414545,-1.577999,2.34,http://s2.geograph.org.uk/photos/04/82/048262_39b6cd2b_120x120.jpg
48263,"Tile Hill, Coventry",David Stowell,2005-08-29,52.400223,-1.595773,2.87,http://s3.geograph.org.uk/photos/04/82/048263_d00561cd_120x120.jpg
48264,"Tile Hill, Coventry",David Stowell,2005-08-29,52.400223,-1.595773,1.74,http://s0.geograph.org.uk/photos/04/82/048264_63a76c89_120x120.jpg
50426,"Allesley Old Road, Coventry",David Stowell,2005-07-23,52.40811,-1.53984,1.92,http://s2.geograph.org.uk/photos/05/04/050426_58e8e871_120x120.jpg
50428,"Grayswood Avenue shops, Coventry",David Stowell,2005-07-23,52.413538,-1.548605,1.31,http://s0.geograph.org.uk/photos/05/04/050428_9941ce60_120x120.jpg
50418,"The Graylands, Finham",David Stowell,2005-07-23,52.379249,-1.516635,1.77,http://s2.geograph.org.uk/photos/05/04/050418_314a12bc_120x120.jpg
50420,Fletchamstead Highway Roundabout,David Stowell,2005-07-23,52.391979,-1.553233,1.33,http://s0.geograph.org.uk/photos/05/04/050420_0ef9d3c8_120x120.jpg
50423,"Floral Display, Fletchamstead Highway Roundabout",David Stowell,2005-07-23,52.391973,-1.551764,1.37,http://s3.geograph.org.uk/photos/05/04/050423_91eed6bb_120x120.jpg
50424,Canley Halt,David Stowell,2005-07-23,52.399154,-1.548751,1.78,http://s0.geograph.org.uk/photos/05/04/050424_9c4f15a9_120x120.jpg
50430,"St Barbara's, Earlsdon",David Stowell,2005-07-23,52.396417,-1.538492,2.59,http://s2.geograph.org.uk/photos/05/04/050430_051f0791_120x120.jpg
50431,"Rochester Road, Earlsdon",David Stowell,2005-07-23,52.396423,-1.539961,2.35,http://s3.geograph.org.uk/photos/05/04/050431_2b5c1140_120x120.jpg
57452,Coventry - Canley,Ian Rob,2005-09-25,52.39207,-1.578213,1.54,http://s0.geograph.org.uk/photos/05/74/057452_42e5a824_120x120.jpg
58650,National Office of the Learning and Skills Council,Roger Miller,2005-09-27,52.400794,-1.50905,1.44,http://s2.geograph.org.uk/photos/05/86/058650_cc8468e6_120x120.jpg
60270,Coventry - Whitley,Ian Rob,2005-10-02,52.385386,-1.479836,2.48,http://s2.geograph.org.uk/photos/06/02/060270_8c8283b8_120x120.jpg
69041,The Whittle Arch,Richard Harrison,2005-05-15,52.410695,-1.511881,1.53,http://s1.geograph.org.uk/photos/06/90/069041_a374bc6a_120x120.jpg
69043,A blue phoenix in Cov,Richard Harrison,2005-05-15,52.410695,-1.511881,3.40,http://s3.geograph.org.uk/photos/06/90/069043_30de4e10_120x120.jpg
70188,"The Ricoh Arena, Coventry",Richard Harrison,2005-10-24,52.448396,-1.498222,1.08,http://s0.geograph.org.uk/photos/07/01/070188_41b2afe6_120x120.jpg
70189,Where the wives spend Saturday afternoon.,Richard Harrison,2005-10-24,52.444781,-1.493849,0.94,http://s1.geograph.org.uk/photos/07/01/070189_1d43ad4c_120x120.jpg
70558,Stand in the place where you work....get some R.E.M. later,Richard Harrison,2005-10-26,52.386618,-1.562103,1.17,http://s2.geograph.org.uk/photos/07/05/070558_2a683cb5_120x120.jpg
71499,"Jaguar's Heritage Centre, Coventry",Richard Harrison,2005-10-28,52.436062,-1.561613,0.97,http://s3.geograph.org.uk/photos/07/14/071499_b735d9ea_120x120.jpg
71504,Brownshill Green Water Works,Richard Harrison,2005-10-28,52.441417,-1.551262,2.15,http://s0.geograph.org.uk/photos/07/15/071504_6b20d18c_120x120.jpg
73022,"Coventry Hill Hotel, whilst waiting in a queue!",Richard Harrison,2005-10-30,52.426124,-1.573036,1.40,http://s2.geograph.org.uk/photos/07/30/073022_fe07f3f3_120x120.jpg
73038,Priory Place on Diwali night,Richard Harrison,2005-10-31,52.410676,-1.507471,1.47,http://s2.geograph.org.uk/photos/07/30/073038_d93c264c_120x120.jpg
90266,Will the last leaper to leave please turn off the engine?,Richard Harrison,2005-12-12,52.434231,-1.552806,1.40,http://s2.geograph.org.uk/photos/09/02/090266_70f708f9_120x120.jpg
96630,Parkhill Bus Terminus,John Winterbottom,2005-12-28,52.419923,-1.573537,1.74,http://s2.geograph.org.uk/photos/09/66/096630_623027a2_120x120.jpg
96758,Farmland near Allesley Green,John Winterbottom,2005-12-28,52.419056,-1.582367,3.64,http://s2.geograph.org.uk/photos/09/67/096758_c31b1842_120x120.jpg
96774,Farmland Near Upper Eastern Green,John Winterbottom,2005-12-28,52.420919,-1.601466,4.11,http://s2.geograph.org.uk/photos/09/67/096774_415c6aa9_120x120.jpg
96785,Farmland Near Pickford and the A45,John Winterbottom,2005-12-28,52.43345,-1.585173,1.86,http://s1.geograph.org.uk/photos/09/67/096785_145e3c50_120x120.jpg
96791,Footpath across Farmland at Pickford Green,John Winterbottom,2005-12-28,52.42899,-1.59551,1.86,http://s3.geograph.org.uk/photos/09/67/096791_63ca0dac_120x120.jpg
96809,Winter Crops Near Millison's Wood,John Winterbottom,2005-12-28,52.429939,-1.610209,3.34,http://s1.geograph.org.uk/photos/09/68/096809_74fa47df_120x120.jpg
96812,Playground by the Parkhill Estate,John Winterbottom,2005-12-28,52.420833,-1.576469,3.37,http://s0.geograph.org.uk/photos/09/68/096812_f1a7a6d1_120x120.jpg
96815,Farmland near Brook Farm,John Winterbottom,2005-12-28,52.423586,-1.592618,4.18,http://s3.geograph.org.uk/photos/09/68/096815_bb8f44ab_120x120.jpg
96821,Pickford Brook and the A45,John Winterbottom,2005-12-28,52.42804,-1.580812,3.33,http://s1.geograph.org.uk/photos/09/68/096821_e9d85507_120x120.jpg
96829,Pickford Grange Farm,John Winterbottom,2005-12-28,52.427212,-1.601409,3.19,http://s1.geograph.org.uk/photos/09/68/096829_ebfd7070_120x120.jpg
96836,Footpath by Unnamed Brook.,John Winterbottom,2005-12-28,52.42354,-1.579384,4.48,http://s0.geograph.org.uk/photos/09/68/096836_b8f96eb3_120x120.jpg
96842,Footbridge Across the Brook Near Allesley Green,John Winterbottom,2005-12-28,52.422636,-1.577922,3.52,http://s2.geograph.org.uk/photos/09/68/096842_fdaa3236_120x120.jpg
97621,"The City Arms, Earlsdon",David,2005-02-18,52.399085,-1.531115,1.51,http://s1.geograph.org.uk/photos/09/76/097621_b8d92977_120x120.jpg
98753,Harvest Hill Lane,John Winterbottom,2006-01-01,52.441571,-1.593924,3.97,http://s1.geograph.org.uk/photos/09/87/098753_e31842f9_120x120.jpg
98758,Hill Fields Farm on Harvest Hill Lane,John Winterbottom,2006-01-01,52.443359,-1.590965,4.83,http://s2.geograph.org.uk/photos/09/87/098758_a299f15c_120x120.jpg
98767,A Pond by the Footpath.,John Winterbottom,2006-01-01,52.443344,-1.586551,4.02,http://s3.geograph.org.uk/photos/09/87/098767_d4a2f318_120x120.jpg
98778,Footpath Through Farmland,John Winterbottom,2006-01-01,52.446945,-1.587989,4.71,http://s2.geograph.org.uk/photos/09/87/098778_f234567a_120x120.jpg
98819,Farmland South of Corley Moor,John Winterbottom,2006-01-01,52.456813,-1.58201,4.04,http://s3.geograph.org.uk/photos/09/88/098819_2851f32f_120x120.jpg
98828,Pikers Lane,John Winterbottom,2006-01-01,52.44777,-1.567383,4.80,http://s0.geograph.org.uk/photos/09/88/098828_e9035d30_120x120.jpg
98837,Footpath Near Pikers Lane,John Winterbottom,2006-01-01,52.446871,-1.567391,4.32,http://s1.geograph.org.uk/photos/09/88/098837_674ac3cf_120x120.jpg
103708,Mosaic detail in Cov Centre.,Richard Harrison,2005-04-10,52.408897,-1.511901,1.28,http://s0.geograph.org.uk/photos/10/37/103708_7a0e4d93_120x120.jpg
103712,The closed BBC Open Centre.,Richard Harrison,2005-05-15,52.409777,-1.507481,2.24,http://s0.geograph.org.uk/photos/10/37/103712_bc6f0a5f_120x120.jpg
103753,"St. Thomas' Church, Keresley",Richard Harrison,2005-11-05,52.439557,-1.535099,3.29,http://s1.geograph.org.uk/photos/10/37/103753_7259b752_120x120.jpg
105954,Wyken,Ian Rob,2006-01-15,52.421245,-1.457357,1.52,http://s2.geograph.org.uk/photos/10/59/105954_190ffd6f_120x120.jpg
106220,"Wyley Road, Radford",Richard Harrison,2006-01-15,52.420619,-1.520594,1.25,http://s0.geograph.org.uk/photos/10/62/106220_aa618c03_120x120.jpg
106223,"Tamworth Road, Coventry",Richard Harrison,2006-01-15,52.450396,-1.548228,2.85,http://s3.geograph.org.uk/photos/10/62/106223_16055310_120x120.jpg
106355,Wyken,Ian Rob,2006-01-15,52.423969,-1.463206,3.16,http://s3.geograph.org.uk/photos/10/63/106355_f6bdeea3_120x120.jpg
106357,Wyken,Ian Rob,2006-01-15,52.42307,-1.463217,3.88,http://s1.geograph.org.uk/photos/10/63/106357_b127c73f_120x120.jpg
106362,Wyken,Ian Rob,2006-01-15,52.422158,-1.460287,1.82,http://s2.geograph.org.uk/photos/10/63/106362_04f444e4_120x120.jpg
108560,A4114 Allesley Bypass (Pickford Way),John Winterbottom,2006-01-20,52.419858,-1.555892,1.86,http://s0.geograph.org.uk/photos/10/85/108560_1da68709_120x120.jpg
108566,Allesley village,John Winterbottom,2006-01-20,52.422572,-1.560277,2.85,http://s2.geograph.org.uk/photos/10/85/108566_4c8aa5ff_120x120.jpg
108576,Footbridge across Pickford Way,John Winterbottom,2006-01-20,52.421645,-1.552933,3.82,http://s0.geograph.org.uk/photos/10/85/108576_02cddfc8_120x120.jpg
113811,Coventry - War Memorial Park,Ian Rob,2006-01-29,52.390078,-1.526802,4.04,http://s3.geograph.org.uk/photos/11/38/113811_b54301e7_120x120.jpg
117524,Baginton,Ian Rob,2006-02-05,52.376396,-1.479941,1.68,http://s0.geograph.org.uk/photos/11/75/117524_803fcefd_120x120.jpg
117531,Baginton,Ian Rob,2006-02-05,52.376396,-1.479941,2.32,http://s3.geograph.org.uk/photos/11/75/117531_8dd9ebed_120x120.jpg
121737,The Hiron Rail Bridge,John Curran,2006-02-13,52.395317,-1.510875,1.86,http://s1.geograph.org.uk/photos/12/17/121737_4ed40304_120x120.jpg
123090,Wyken Pool,Stephen McKay,2006-01-29,52.448248,-1.464382,5.56,http://s2.geograph.org.uk/photos/12/30/123090_59845dfb_120x120.jpg
124720,Coventry - Foleshill,Ian Rob,2006-02-19,52.439337,-1.482143,3.64,http://s0.geograph.org.uk/photos/12/47/124720_4f7499aa_120x120.jpg
124734,Coventry - Little Heath,Ian Rob,2006-02-19,52.435779,-1.491011,1.69,http://s2.geograph.org.uk/photos/12/47/124734_2080fc6c_120x120.jpg
124743,Coventry - Foleshill,Ian Rob,2006-02-19,52.440248,-1.485075,2.54,http://s3.geograph.org.uk/photos/12/47/124743_447f4721_120x120.jpg
131812,Coventry Cathedral,Keith Havercroft,2006-03-04,52.407979,-1.507501,1.58,http://s0.geograph.org.uk/photos/13/18/131812_84c5f8ba_120x120.jpg
131822,Coventry University,Keith Havercroft,2006-03-04,52.407973,-1.506031,0.90,http://s2.geograph.org.uk/photos/13/18/131822_616e15e1_120x120.jpg
139044,Coventry - Coundon,Ian Rob,2006-03-19,52.427881,-1.538163,1.28,http://s0.geograph.org.uk/photos/13/90/139044_41c6cb81_120x120.jpg
139046,Coventry - Coundon,Ian Rob,2006-03-19,52.426977,-1.536702,1.59,http://s2.geograph.org.uk/photos/13/90/139046_d1d4eafe_120x120.jpg
141039,Traffic on a Level Crossing,Michael Patterson,2006-03-21,52.451235,-1.51055,1.23,http://s3.geograph.org.uk/photos/14/10/141039_91d97eac_120x120.jpg
141045,Ricoh Arena,Michael Patterson,2006-03-21,52.449145,-1.494682,0.70,http://s1.geograph.org.uk/photos/14/10/141045_8c890f7d_120x120.jpg
142391,Coventry Cathedral,Ken Crosby,2002-06-00,52.407979,-1.507501,2.48,http://s3.geograph.org.uk/photos/14/23/142391_4afbdfd8_120x120.jpg
142392,Sad remains of the previous Coventry Cathedral,Ken Crosby,2002-06-00,52.407979,-1.507501,3.43,http://s0.geograph.org.uk/photos/14/23/142392_612b7850_120x120.jpg
152183,Coventry - Wood End,Ian Rob,2006-04-15,52.438392,-1.471857,1.01,http://s3.geograph.org.uk/photos/15/21/152183_b737ca3d_120x120.jpg
157450,Cemetery at Allesley,E Gammie,2006-04-23,52.423449,-1.554386,3.01,http://s2.geograph.org.uk/photos/15/74/157450_8e55e9a6_120x120.jpg
158600,Coventry Station,Roger Miller,2006-04-25,52.400818,-1.514929,1.23,http://s0.geograph.org.uk/photos/15/86/158600_dd632d43_120x120.jpg
159838,"Footbridge Beechwood Ave, Coventry",E Gammie,2006-04-27,52.400652,-1.540799,2.03,http://s2.geograph.org.uk/photos/15/98/159838_59fad0f1_120x120.jpg
159840,"All Souls Church, Hearsall Common",E Gammie,2006-04-27,52.404508,-1.538407,3.09,http://s0.geograph.org.uk/photos/15/98/159840_78690e62_120x120.jpg
159849,"Standard Triumph monument, Herald Ave.",E Gammie,2006-04-25,52.40276,-1.551507,1.67,http://s1.geograph.org.uk/photos/15/98/159849_15938388_120x120.jpg
159853,"Traffic island artwork and Village Hotel, Coventry",E Gammie,2006-04-27,52.402744,-1.547245,1.47,http://s1.geograph.org.uk/photos/15/98/159853_4992f3e8_120x120.jpg
159855,Hearsall Common woodland,E Gammie,2006-04-27,52.40725,-1.550139,4.98,http://s3.geograph.org.uk/photos/15/98/159855_e08031a5_120x120.jpg
164481,"A45 empty of traffic, 1990",E Gammie,1990-12-09,52.413609,-1.567717,2.95,http://s1.geograph.org.uk/photos/16/44/164481_42ea6f33_120x120.jpg
172369,"Showcase Cinema, Cross Point Business Park",Stephen McKay,2006-05-20,52.435504,-1.430705,0.68,http://s1.geograph.org.uk/photos/17/23/172369_3a5c9525_120x120.jpg
172376,Cross Point Tesco Extra,Stephen McKay,2006-05-20,52.433713,-1.432199,0.86,http://s0.geograph.org.uk/photos/17/23/172376_b2ea56bd_120x120.jpg
172382,"Batleys Cash & Carry, Cross Point Business Park",Stephen McKay,2006-05-20,52.432786,-1.426328,1.38,http://s2.geograph.org.uk/photos/17/23/172382_5c6a0769_120x120.jpg
172425,"Jolly Colliers, Potter's Green",Stephen McKay,2006-05-20,52.441874,-1.446806,1.89,http://s1.geograph.org.uk/photos/17/24/172425_c191ef5d_120x120.jpg
172432,"Woodway Close, Potter's Green",Stephen McKay,2006-05-20,52.430201,-1.449893,1.25,http://s0.geograph.org.uk/photos/17/24/172432_380c3939_120x120.jpg
178061,Holyhead Road shops,E Gammie,2006-05-27,52.417117,-1.544157,1.63,http://s1.geograph.org.uk/photos/17/80/178061_bc067bed_120x120.jpg
190509,"Footpath, Allesley",E Gammie,2006-06-11,52.427591,-1.556256,3.15,http://s1.geograph.org.uk/photos/19/05/190509_1743ee21_120x120.jpg
194810,"Baptist Church, Quinton Park, Cheylesmore, Coventry",John Curran,2006-07-01,52.390887,-1.504752,1.32,http://s2.geograph.org.uk/photos/19/48/194810_6b2ad2a5_120x120.jpg
200079,Walsgrave Hospital,David Stowell,2006-07-11,52.421156,-1.438242,2.79,http://s3.geograph.org.uk/photos/20/00/200079_ca855fc3_120x120.jpg
201401,The Oxford Canal near Sowe Common,David Stowell,2006-07-13,52.444591,-1.451185,4.35,http://s1.geograph.org.uk/photos/20/14/201401_3b0d1000_120x120.jpg
213942,Behind the facade,John Evans,2006-08-03,52.412834,-1.603009,2.52,http://s2.geograph.org.uk/photos/21/39/213942_efb4887c_120x120.jpg
214990,Electric loco near Canley,Stephen Craven,1979-05-27,52.400036,-1.544333,1.73,http://s2.geograph.org.uk/photos/21/49/214990_9fbf1a07_120x120.jpg
217381,"Cash's Lane, Coventry",Stephen McKay,2006-08-11,52.421464,-1.507351,1.60,http://s1.geograph.org.uk/photos/21/73/217381_e8a732f0_120x120.jpg
217384,"Kingfield Road, Coventry",Stephen McKay,2006-08-11,52.427763,-1.508751,1.92,http://s0.geograph.org.uk/photos/21/73/217384_91816d73_120x120.jpg
224405,Gallagher Retail Park,E Gammie,2006-08-23,52.430385,-1.491073,0.94,http://s1.geograph.org.uk/photos/22/44/224405_d72bf979_120x120.jpg
224408,Danger unguarded canal !,E Gammie,2006-08-23,52.430379,-1.489602,2.31,http://s0.geograph.org.uk/photos/22/44/224408_a2690ea8_120x120.jpg
227024,Empty factory at Whitmore Park,David Stowell,2006-08-27,52.436813,-1.52336,1.19,http://s0.geograph.org.uk/photos/22/70/227024_f6c76a6d_120x120.jpg
227031,Holbrook Lane,David Stowell,2006-08-27,52.442153,-1.510062,1.55,http://s3.geograph.org.uk/photos/22/70/227031_634fce58_120x120.jpg
227037,Parkville Highway,David Stowell,2006-08-27,52.445791,-1.520321,1.81,http://s1.geograph.org.uk/photos/22/70/227037_6ef9ca69_120x120.jpg
227041,"Hare and Hounds, Keresley Green",David Stowell,2006-08-27,52.450338,-1.533514,2.85,http://s1.geograph.org.uk/photos/22/70/227041_e760081d_120x120.jpg
227046,"Redevelopment at Coventry Colliery, Keresley",David Stowell,2006-08-27,52.456631,-1.533448,1.21,http://s2.geograph.org.uk/photos/22/70/227046_36f0a085_120x120.jpg
227052,Distant view of Coventry Colliery site,David Stowell,2006-08-27,52.453963,-1.540834,2.79,http://s0.geograph.org.uk/photos/22/70/227052_ffa04476_120x120.jpg
227272,Coventry & Keresley Colliery Sports and Social Club,David Stowell,2006-08-27,52.457536,-1.53491,1.06,http://s0.geograph.org.uk/photos/22/72/227272_224be437_120x120.jpg
227273,"Fivefield Road, Keresley",David Stowell,2006-08-27,52.451243,-1.534976,1.72,http://s1.geograph.org.uk/photos/22/72/227273_86c740b7_120x120.jpg
227274,Gazebo in Penny Park Lane,David Stowell,2006-08-27,52.445797,-1.521792,3.81,http://s2.geograph.org.uk/photos/22/72/227274_219d1053_120x120.jpg
227275,The Convoy,David Stowell,2006-08-27,52.445797,-1.521792,2.00,http://s3.geograph.org.uk/photos/22/72/227275_434bcbc9_120x120.jpg
227277,Gardening shop,David Stowell,2006-08-27,52.445791,-1.520321,1.66,http://s1.geograph.org.uk/photos/22/72/227277_c1ce9a80_120x120.jpg
227278,Holy Family Church,David Stowell,2006-08-27,52.444892,-1.520331,1.44,http://s2.geograph.org.uk/photos/22/72/227278_18858f00_120x120.jpg
227279,Parkgate Road Shops,David Stowell,2006-08-27,52.445791,-1.520321,1.08,http://s3.geograph.org.uk/photos/22/72/227279_c784acb3_120x120.jpg
227281,"St Luke's, Holbrooks",David Stowell,2006-08-27,52.442159,-1.511533,1.57,http://s1.geograph.org.uk/photos/22/72/227281_95987228_120x120.jpg
227282,The Craftsman,David Stowell,2006-08-27,52.442201,-1.521831,1.73,http://s2.geograph.org.uk/photos/22/72/227282_b7116a76_120x120.jpg
227284,Beake Avenue shops,David Stowell,2006-08-27,52.442207,-1.523302,1.26,http://s0.geograph.org.uk/photos/22/72/227284_1ed1b469_120x120.jpg
227285,Beake Avenue,David Stowell,2006-08-27,52.436813,-1.52336,1.40,http://s1.geograph.org.uk/photos/22/72/227285_ef2ada04_120x120.jpg
228899,Alderman's Green Jubilee Hall,David Stowell,2006-08-30,52.44559,-1.473242,1.62,http://s3.geograph.org.uk/photos/22/88/228899_ba626f80_120x120.jpg
228901,Alderman's Green Free Methodist Church,David Stowell,2006-08-30,52.44559,-1.473242,1.65,http://s1.geograph.org.uk/photos/22/89/228901_1fd81023_120x120.jpg
228903,"The Bird in Hand, Alderman's Green",David Stowell,2006-08-30,52.44559,-1.473242,2.01,http://s3.geograph.org.uk/photos/22/89/228903_8a6d1d60_120x120.jpg
229144,Doubling up,David Stowell,2006-08-30,52.392733,-1.516487,3.45,http://s0.geograph.org.uk/photos/22/91/229144_35aab48e_120x120.jpg
230495,"""The Ponderosa"", Tile Hill North",John Evans,2006-09-01,52.410061,-1.580982,3.58,http://s3.geograph.org.uk/photos/23/04/230495_f2af3c6d_120x120.jpg
232779,"The Lane at Wall Hill, near Corley",John Evans,2006-09-03,52.453191,-1.574687,3.94,http://s3.geograph.org.uk/photos/23/27/232779_a73df63a_120x120.jpg
246381,Whitefriars,Mike Downey,2006-09-03,52.405258,-1.501651,2.86,http://s1.geograph.org.uk/photos/24/63/246381_5d17695d_120x120.jpg
246390,Canley Ford,Mike Downey,2006-09-10,52.389243,-1.542975,4.65,http://s2.geograph.org.uk/photos/24/63/246390_95c2c170_120x120.jpg
246391,Canley Ford,Mike Downey,2006-09-10,52.389243,-1.542975,4.09,http://s3.geograph.org.uk/photos/24/63/246391_9a5de22c_120x120.jpg
246395,"Phoenix, Canley Ford",Mike Downey,2006-09-10,52.389243,-1.542975,3.58,http://s3.geograph.org.uk/photos/24/63/246395_01fc49e1_120x120.jpg
248236,Before the Ricoh Arena,E Gammie,2002-09-21,52.448384,-1.495279,1.73,http://s0.geograph.org.uk/photos/24/82/248236_144e499e_120x120.jpg
2152873,West Screen,Gordon Griffiths,2010-11-06,52.408329,-1.504998,0.72,http://s1.geograph.org.uk/geophotos/02/15/28/2152873_f116f606_120x120.jpg
265499,Coventry Cathedral Window,Colin Smith,1997-01-00,52.407973,-1.506031,2.24,http://s3.geograph.org.uk/photos/26/54/265499_5e1bf1d7_120x120.jpg
269767,White Lion,E Gammie,2006-10-30,52.441423,-1.552733,1.69,http://s3.geograph.org.uk/photos/26/97/269767_b5905563_120x120.jpg
269776,Allesley Hall Drive,E Gammie,2006-10-29,52.417161,-1.555919,4.53,http://s0.geograph.org.uk/photos/26/97/269776_8d0cd132_120x120.jpg
269790,Allesley Park,E Gammie,2006-10-29,52.418959,-1.555901,3.24,http://s2.geograph.org.uk/photos/26/97/269790_08cf97f3_120x120.jpg
269803,Allesley Park golf course,E Gammie,2006-10-29,52.418965,-1.557372,3.28,http://s3.geograph.org.uk/photos/26/98/269803_ef998ab8_120x120.jpg
269810,Hedgerow remnant,E Gammie,2006-10-29,52.418976,-1.560312,3.92,http://s2.geograph.org.uk/photos/26/98/269810_de7a0414_120x120.jpg
269813,Autumn colour at Allesley Park,E Gammie,2006-10-29,52.421684,-1.563226,4.19,http://s1.geograph.org.uk/photos/26/98/269813_690d99ea_120x120.jpg
269817,Ridge and furrow,E Gammie,2006-10-29,52.42079,-1.564706,3.70,http://s1.geograph.org.uk/photos/26/98/269817_ad68c9a9_120x120.jpg
269823,"Allesley Park, autumn",E Gammie,2006-10-29,52.420779,-1.561765,3.63,http://s3.geograph.org.uk/photos/26/98/269823_2a24267a_120x120.jpg
269832,Silver birch,E Gammie,2006-10-29,52.421689,-1.564697,4.66,http://s0.geograph.org.uk/photos/26/98/269832_6788b3e5_120x120.jpg
272146,Allesley Hall Drive,E Gammie,2006-11-02,52.418066,-1.557381,3.39,http://s2.geograph.org.uk/photos/27/21/272146_34f84849_120x120.jpg
272152,Church and yews,E Gammie,2006-11-02,52.422921,-1.557479,4.07,http://s0.geograph.org.uk/photos/27/21/272152_35d6137e_120x120.jpg
272154,Prickly stile,E Gammie,2006-11-03,52.423818,-1.557029,2.81,http://s2.geograph.org.uk/photos/27/21/272154_daa47e00_120x120.jpg
272259,Gazebo?,E Gammie,2006-11-03,52.422566,-1.558806,3.18,http://s3.geograph.org.uk/photos/27/22/272259_a38fe54a_120x120.jpg
272268,Ha-ha,E Gammie,2006-11-03,52.418974,-1.559871,3.98,http://s0.geograph.org.uk/photos/27/22/272268_2f187772_120x120.jpg
272293,"If the wind changes, you'll stick like that",E Gammie,2006-11-02,52.422921,-1.557479,3.40,http://s1.geograph.org.uk/photos/27/22/272293_c1f1d414_120x120.jpg
272523,Sherbourne valley,E Gammie,2006-11-02,52.425258,-1.557309,4.33,http://s3.geograph.org.uk/photos/27/25/272523_5ed96f70_120x120.jpg
275941,Pickford Brook,E Gammie,2006-11-09,52.420774,-1.560294,3.53,http://s1.geograph.org.uk/photos/27/59/275941_4ac8b6f1_120x120.jpg
275949,"Stone House, Allesley",E Gammie,2006-11-09,52.422116,-1.558664,2.99,http://s1.geograph.org.uk/photos/27/59/275949_713cbd8b_120x120.jpg
275955,Stone House doorway,E Gammie,2006-11-03,52.422385,-1.558367,2.01,http://s3.geograph.org.uk/photos/27/59/275955_6a79d355_120x120.jpg
275959,"Stone House, Allesley",E Gammie,1975-06-17,52.422115,-1.558369,3.26,http://s3.geograph.org.uk/photos/27/59/275959_3d6f34f6_120x120.jpg
276398,Coventry City FC,www fotodiscs4u co uk,2006-11-10,52.448377,-1.493808,0.95,http://s2.geograph.org.uk/photos/27/63/276398_01741bdb_120x120.jpg
277869,"The Express by Holiday Inn, Kenpas Highway, Coventry",Bill Henderson,2006-11-12,52.379255,-1.518104,1.49,http://s1.geograph.org.uk/photos/27/78/277869_a6b60267_120x120.jpg
281029,Allesley Hall,E Gammie,2006-11-19,52.418082,-1.561792,3.86,http://s1.geograph.org.uk/photos/28/10/281029_00f237f7_120x120.jpg
281038,Allesley Hall Drive,E Gammie,2006-11-19,52.418077,-1.560321,3.61,http://s2.geograph.org.uk/photos/28/10/281038_4808cbce_120x120.jpg
284938,"Window, Coventry Cathedral",Sue Adair,2003-02-04,52.407979,-1.507501,0.90,http://s2.geograph.org.uk/photos/28/49/284938_d43ed4e3_120x120.jpg
284945,Interior of Coventry Cathedral,Sue Adair,2003-02-04,52.407979,-1.507501,2.43,http://s1.geograph.org.uk/photos/28/49/284945_0da8cd4e_120x120.jpg
284970,"Priory Row, Coventry from Priory Gardens",Sue Adair,2003-02-04,52.408975,-1.509107,3.96,http://s2.geograph.org.uk/photos/28/49/284970_ec85ca72_120x120.jpg
284990,Ruins of Coventry Cathedral,Sue Adair,2003-02-04,52.407978,-1.50706,3.69,http://s2.geograph.org.uk/photos/28/49/284990_7c4d28d6_120x120.jpg
285013,"The Old Windmill, Spon Street, Coventry",Sue Adair,2003-02-04,52.408034,-1.52073,2.06,http://s1.geograph.org.uk/photos/28/50/285013_3f50361e_120x120.jpg
285579,Coventry - Pool Meadow,Ian Rob,2006-11-27,52.408878,-1.507491,0.83,http://s3.geograph.org.uk/photos/28/55/285579_c90de42d_120x120.jpg
285583,Coventry,Ian Rob,2006-11-27,52.40979,-1.510421,1.35,http://s3.geograph.org.uk/photos/28/55/285583_6266165d_120x120.jpg
288567,John & Yoko's trees,David Stowell,2006-11-23,52.407986,-1.508971,3.01,http://s3.geograph.org.uk/photos/28/85/288567_5e611cb5_120x120.jpg
288572,Water over Window,David Stowell,2006-11-23,52.408885,-1.508961,1.77,http://s0.geograph.org.uk/photos/28/85/288572_da637c78_120x120.jpg
288573,Site of Priory Mill,David Stowell,2006-11-23,52.409784,-1.508951,2.29,http://s1.geograph.org.uk/photos/28/85/288573_2ada2f4b_120x120.jpg
288579,Coventry Transport Museum,David Stowell,2006-11-23,52.409784,-1.508951,0.72,http://s3.geograph.org.uk/photos/28/85/288579_b1a0e3ad_120x120.jpg
288584,River Sherbourne,David Stowell,2006-11-23,52.40979,-1.510421,2.39,http://s0.geograph.org.uk/photos/28/85/288584_840d4354_120x120.jpg
288586,Lady Godiva rides again,David Stowell,2006-11-23,52.407099,-1.511921,1.37,http://s2.geograph.org.uk/photos/28/85/288586_4d8b56b4_120x120.jpg
288589,Greyfriars (Christchurch) Spire,David Stowell,2006-11-23,52.405301,-1.51194,4.15,http://s1.geograph.org.uk/photos/28/85/288589_5cd4f085_120x120.jpg
288594,Ford's Hospital,David Stowell,2006-11-23,52.406194,-1.510461,2.01,http://s2.geograph.org.uk/photos/28/85/288594_61950b99_120x120.jpg
288596,Plaque on Ford's Hospital,David Stowell,2006-11-24,52.406194,-1.510461,2.99,http://s0.geograph.org.uk/photos/28/85/288596_ff4b960d_120x120.jpg
288598,Inscription over the entrance to Ford's Hospital,David Stowell,2006-11-23,52.406194,-1.510461,2.36,http://s2.geograph.org.uk/photos/28/85/288598_83c44282_120x120.jpg
288602,Coffa's tree,David Stowell,2006-11-24,52.407979,-1.507501,1.74,http://s2.geograph.org.uk/photos/28/86/288602_8b94dac9_120x120.jpg
288606,The Future Monument,David Stowell,2006-11-24,52.409784,-1.508951,2.30,http://s2.geograph.org.uk/photos/28/86/288606_e8a8c06b_120x120.jpg
288611,Nation shall not lift up sword against nation...,David Stowell,2006-11-24,52.407998,-1.511911,2.68,http://s3.geograph.org.uk/photos/28/86/288611_88c8c51e_120x120.jpg
288615,Peeping Tom,David Stowell,2006-11-24,52.4062,-1.51193,1.44,http://s3.geograph.org.uk/photos/28/86/288615_34d7db36_120x120.jpg
291162,Coventry Cathedral interior,Lynne Glazzard,2006-12-08,52.408966,-1.507049,2.17,http://s2.geograph.org.uk/photos/29/11/291162_3a905aa2_120x120.jpg
294737,Coventry Queens Road,Ian Rob,2006-12-15,52.403527,-1.517839,1.30,http://s1.geograph.org.uk/photos/29/47/294737_540848d8_120x120.jpg
294749,Coventry-Warwick Row,Ian Rob,2006-12-15,52.405313,-1.51488,2.10,http://s1.geograph.org.uk/photos/29/47/294749_1cbef89e_120x120.jpg
332720,Gibbet Hill,Richard Webb,2004-01-08,52.371662,-1.553585,2.87,http://s0.geograph.org.uk/photos/33/27/332720_5884578c_120x120.jpg
333261,"Townfields, Allesley",E Gammie,2007-02-07,52.430316,-1.563876,3.70,http://s1.geograph.org.uk/photos/33/32/333261_77b2f770_120x120.jpg
333284,Farmland near Allesley,E Gammie,2007-02-07,52.433238,-1.576203,3.57,http://s0.geograph.org.uk/photos/33/32/333284_d089a546_120x120.jpg
333293,Triangulation pillar near Allesley,E Gammie,2007-02-07,52.431004,-1.579901,3.17,http://s1.geograph.org.uk/photos/33/32/333293_e03234ce_120x120.jpg
333303,Frozen pond with bulrushes,E Gammie,2007-02-07,52.430997,-1.577989,3.60,http://s3.geograph.org.uk/photos/33/33/333303_889d6fa9_120x120.jpg
336101,Footbridge over the Sherbourne,E Gammie,2007-02-11,52.424088,-1.557173,4.33,http://s1.geograph.org.uk/photos/33/61/336101_210e190b_120x120.jpg
336117,River Sherbourne,E Gammie,2007-02-11,52.424884,-1.553636,4.46,http://s1.geograph.org.uk/photos/33/61/336117_94337fca_120x120.jpg
336137,River Sherbourne,E Gammie,2007-02-11,52.424975,-1.553929,4.17,http://s1.geograph.org.uk/photos/33/61/336137_3f76060d_120x120.jpg
336152,Erosion and deposition,E Gammie,2007-02-11,52.42452,-1.552463,4.92,http://s0.geograph.org.uk/photos/33/61/336152_d6e19bc6_120x120.jpg
336190,"Stile and hedgerow, Allesley",E Gammie,2007-02-11,52.428823,-1.573451,3.92,http://s2.geograph.org.uk/photos/33/61/336190_ec275aef_120x120.jpg
341986,Coventry Cathedral,Tom Pennington,1997-05-00,52.4078,-1.507503,3.83,http://s2.geograph.org.uk/photos/34/19/341986_500d584f_120x120.jpg
345126,The East Side of Lord Street,Keith Williams,2007-02-21,52.406289,-1.533979,1.63,http://s2.geograph.org.uk/photos/34/51/345126_3edd9e2f_120x120.jpg
345170,Canley Ford,Keith Williams,2007-02-21,52.390136,-1.541496,4.60,http://s2.geograph.org.uk/photos/34/51/345170_506e114a_120x120.jpg
345171,Earlsdon Street,Keith Williams,2007-02-21,52.398192,-1.532595,1.47,http://s3.geograph.org.uk/photos/34/51/345171_403febf9_120x120.jpg
345176,Earlsdon Library,Keith Williams,2007-02-21,52.399984,-1.531106,2.04,http://s0.geograph.org.uk/photos/34/51/345176_b1b79464_120x120.jpg
345179,Earlsdon Methodist Church,Keith Williams,2007-02-21,52.399984,-1.531106,1.47,http://s3.geograph.org.uk/photos/34/51/345179_a5675719_120x120.jpg
347980,King Henry VIII School,Keith Williams,2007-02-26,52.399032,-1.517888,2.34,http://s0.geograph.org.uk/photos/34/79/347980_b6d834ee_120x120.jpg
348021,Crocuses and Kingsland Avenue,E Gammie,2007-02-26,52.404951,-1.536786,2.77,http://s1.geograph.org.uk/photos/34/80/348021_52cfbccf_120x120.jpg
348280,Top Green,Keith Williams,2007-02-26,52.397234,-1.517908,3.72,http://s0.geograph.org.uk/photos/34/82/348280_26553b85_120x120.jpg
348309,The Coventry Canal,Keith Williams,2007-02-20,52.431278,-1.489592,3.18,http://s1.geograph.org.uk/photos/34/83/348309_d9a1c6d1_120x120.jpg
349437,Part of the precinct in central Coventry,Keith Williams,2007-02-20,52.408004,-1.513381,1.22,http://s1.geograph.org.uk/photos/34/94/349437_c87cfbdf_120x120.jpg
349444,B4076 heading north to the Jaguar Plant,Keith Williams,2007-02-23,52.427938,-1.55287,2.33,http://s0.geograph.org.uk/photos/34/94/349444_c9ad1e27_120x120.jpg
352590,Monument near Coat of Arms bridge,Keith Williams,2007-03-03,52.386464,-1.522433,2.50,http://s2.geograph.org.uk/photos/35/25/352590_1664d5d1_120x120.jpg
352626,Spon End,Keith Williams,2007-03-01,52.408057,-1.52661,1.84,http://s2.geograph.org.uk/photos/35/26/352626_90f4756c_120x120.jpg
358711,Allesley Hall in 1972,E Gammie,1972-01-14,52.418709,-1.561197,3.27,http://s3.geograph.org.uk/photos/35/87/358711_211b3449_120x120.jpg
358720,Allesley Hall,E Gammie,2007-03-08,52.418889,-1.561195,3.61,http://s0.geograph.org.uk/photos/35/87/358720_1b7e4ddc_120x120.jpg
358729,Allesley Park walled garden,E Gammie,2007-03-08,52.418083,-1.562086,2.15,http://s1.geograph.org.uk/photos/35/87/358729_cb884c17_120x120.jpg
358741,"Dovecote, Allesley Park",E Gammie,2007-03-08,52.418349,-1.560907,3.53,http://s1.geograph.org.uk/photos/35/87/358741_f85b1224_120x120.jpg
365626,Under the A45,E Gammie,2007-03-14,52.411248,-1.561271,2.49,http://s2.geograph.org.uk/photos/36/56/365626_1cf704f6_120x120.jpg
370149,"Pond, Hearsall Common",E Gammie,2007-03-18,52.404443,-1.544876,4.33,http://s1.geograph.org.uk/photos/37/01/370149_47533b36_120x120.jpg
370170,Millions of 'em!,E Gammie,2007-03-18,52.404352,-1.544583,5.00,http://s2.geograph.org.uk/photos/37/01/370170_8b4dbf18_120x120.jpg
370197,Anarchy Bridge,E Gammie,2007-03-18,52.401196,-1.519335,1.61,http://s1.geograph.org.uk/photos/37/01/370197_6811b737_120x120.jpg
370205,"Handcross Grove, Green Lane, Coventry",Peterson Cobbett,2006-03-28,52.381635,-1.528656,1.56,http://s1.geograph.org.uk/photos/37/02/370205_da41f353_120x120.jpg
370222,Three spires,E Gammie,2007-03-18,52.403165,-1.517255,2.74,http://s2.geograph.org.uk/photos/37/02/370222_de447dee_120x120.jpg
370238,Fetch me a druid ...,E Gammie,2007-03-18,52.397412,-1.517465,3.29,http://s2.geograph.org.uk/photos/37/02/370238_2832895c_120x120.jpg
370245,Kenpas Highway (A45) Coventry,Peterson Cobbett,2006-03-28,52.384518,-1.530241,0.99,http://s1.geograph.org.uk/photos/37/02/370245_9257dfdb_120x120.jpg
370262,"Drinking fountain, Top Green",E Gammie,2007-03-18,52.396784,-1.517766,3.98,http://s2.geograph.org.uk/photos/37/02/370262_e379acba_120x120.jpg
370268,Green Lane South,Peterson Cobbett,2006-03-28,52.382439,-1.527472,2.40,http://s0.geograph.org.uk/photos/37/02/370268_eb01acf6_120x120.jpg
370279,"Detail of drinking fountain, Top Green",E Gammie,2007-03-18,52.396514,-1.517769,3.07,http://s3.geograph.org.uk/photos/37/02/370279_1e33461a_120x120.jpg
370296,Elephant at the gate,E Gammie,2007-03-18,52.395344,-1.517488,2.79,http://s0.geograph.org.uk/photos/37/02/370296_f2255461_120x120.jpg
372493,Three in one,E Gammie,2007-03-20,52.404769,-1.536053,3.57,http://s1.geograph.org.uk/photos/37/24/372493_0ff593a0_120x120.jpg
372801,Coventry Bishop Street canal basin,E Gammie,2007-03-21,52.413929,-1.511257,2.39,http://s1.geograph.org.uk/photos/37/28/372801_02e2742e_120x120.jpg
372825,It's somewhere about here,E Gammie,2007-03-21,52.413571,-1.511702,1.11,http://s1.geograph.org.uk/photos/37/28/372825_71150688_120x120.jpg
372842,"Warehouses, Coventry canal basin",E Gammie,2007-03-21,52.4133,-1.511558,2.32,http://s2.geograph.org.uk/photos/37/28/372842_21e3a252_120x120.jpg
373237,The Journeyman,E Gammie,2007-03-21,52.414555,-1.510662,4.61,http://s1.geograph.org.uk/photos/37/32/373237_ab4300a7_120x120.jpg
373252,"Oxford, Banbury and Rugby",E Gammie,2007-03-21,52.414376,-1.510664,2.41,http://s0.geograph.org.uk/photos/37/32/373252_32cb4197_120x120.jpg
373301,Friars House,E Gammie,2007-03-18,52.403508,-1.513283,1.09,http://s1.geograph.org.uk/photos/37/33/373301_9f4fbd13_120x120.jpg
373333,Martyrs memorial,E Gammie,2007-03-20,52.402948,-1.508145,3.13,http://s1.geograph.org.uk/photos/37/33/373333_dc264398_120x120.jpg
373339,Quinton Works,E Gammie,2007-03-20,52.403124,-1.507408,1.84,http://s3.geograph.org.uk/photos/37/33/373339_f815c1c4_120x120.jpg
373343,Quinton Works plaque,E Gammie,2007-03-20,52.403034,-1.507409,2.21,http://s3.geograph.org.uk/photos/37/33/373343_c5e6e673_120x120.jpg
373470,Park in hibernation,E Gammie,2007-03-20,52.393461,-1.518684,2.17,http://s2.geograph.org.uk/photos/37/34/373470_41fc4baa_120x120.jpg
373567,"Electricity pylons dominate the sky, Hawkesbury",Roger  Kidd,2005-08-14,52.454547,-1.465778,1.76,http://s3.geograph.org.uk/photos/37/35/373567_4757dde8_120x120.jpg
373573,"The Oxford Canal and Pylons, near Hawkesbury",Roger  Kidd,2005-08-14,52.455174,-1.465181,1.98,http://s1.geograph.org.uk/photos/37/35/373573_2efc5743_120x120.jpg
373774,"Stop Lock at Hawkesbury, Oxford Canal",Roger  Kidd,2005-08-14,52.457351,-1.46957,3.16,http://s2.geograph.org.uk/photos/37/37/373774_e6e84b4f_120x120.jpg
373800,"Hawkesbury Junction, Warwickshire",Roger  Kidd,2005-08-14,52.457261,-1.469571,3.19,http://s0.geograph.org.uk/photos/37/38/373800_1754a0dc_120x120.jpg
373811,"Stop Lock and Towpath Bridge, Hawkesbury Junction, Oxford Canal",Roger  Kidd,2005-08-14,52.457441,-1.469569,3.45,http://s3.geograph.org.uk/photos/37/38/373811_7f8ceeb4_120x120.jpg
374882,Martyrs memorial (names),E Gammie,2007-03-20,52.403127,-1.508143,2.22,http://s2.geograph.org.uk/photos/37/48/374882_4ae47af4_120x120.jpg
380108,"Canal Warehouse, Bishop Street Basin, Coventry",Dr Neil Clifton,1975-04-19,52.413031,-1.511561,1.25,http://s0.geograph.org.uk/photos/38/01/380108_4d9bf562_120x120.jpg
380245,"Bishop Street Basin, Coventry Canal",Dr Neil Clifton,1975-04-19,52.413121,-1.51156,3.48,http://s1.geograph.org.uk/photos/38/02/380245_df99a3b7_120x120.jpg
380311,"Basin End, Bishop Street Basin, Coventry",Dr Neil Clifton,1975-04-19,52.413392,-1.511851,1.86,http://s3.geograph.org.uk/photos/38/03/380311_64a29f33_120x120.jpg
380347,"The Basin from the Bridge:  Bishop Street, Coventry",Dr Neil Clifton,1975-04-19,52.413481,-1.51185,1.14,http://s3.geograph.org.uk/photos/38/03/380347_966dd937_120x120.jpg
380813,"Tree, Coat of Arms Bridge Road",E Gammie,2007-03-28,52.38756,-1.526536,2.54,http://s1.geograph.org.uk/photos/38/08/380813_e1748ee0_120x120.jpg
380845,Memorial Park,E Gammie,2007-03-28,52.390697,-1.524151,3.90,http://s1.geograph.org.uk/photos/38/08/380845_376857c7_120x120.jpg
382078,Trigger was startled by the daffodils...,E Gammie,2007-03-18,52.402705,-1.514762,2.13,http://s2.geograph.org.uk/photos/38/20/382078_79c96ab6_120x120.jpg
385003,Footpath between Jaguar and Townfields,E Gammie,2007-04-01,52.429139,-1.561535,3.37,http://s3.geograph.org.uk/photos/38/50/385003_555eafc6_120x120.jpg
385019,Field near Hawkes End,E Gammie,2007-04-01,52.439841,-1.562606,4.22,http://s3.geograph.org.uk/photos/38/50/385019_3da58ce0_120x120.jpg
385027,Fields near Browns Lane,E Gammie,2007-04-01,52.437239,-1.563955,3.83,http://s3.geograph.org.uk/photos/38/50/385027_dbd350ea_120x120.jpg
385031,Stile at Browns Lane,E Gammie,2007-04-01,52.436425,-1.562639,2.49,http://s3.geograph.org.uk/photos/38/50/385031_68742169_120x120.jpg
391542,Belgrade Plaza development,E Gammie,2007-04-06,52.409536,-1.514393,0.85,http://s2.geograph.org.uk/photos/39/15/391542_8ab1c15e_120x120.jpg
392139,Coventry fire station,E Gammie,2007-04-06,52.412153,-1.516716,0.82,http://s3.geograph.org.uk/photos/39/21/392139_bce6cc93_120x120.jpg
393069,Junction in Hawkes End,Chris Carlson,2007-04-08,52.441194,-1.563769,2.87,http://s1.geograph.org.uk/photos/39/30/393069_d02d6b0f_120x120.jpg
397052,Ring road and St Osburgs,E Gammie,2007-04-06,52.410189,-1.520119,1.59,http://s0.geograph.org.uk/photos/39/70/397052_82f18804_120x120.jpg
397137,The gas works,E Gammie,2007-04-06,52.411081,-1.518345,0.99,http://s1.geograph.org.uk/photos/39/71/397137_613b47ea_120x120.jpg
400242,"Bowling green, Memorial Park",E Gammie,2007-04-13,52.394816,-1.520286,4.24,http://s2.geograph.org.uk/photos/40/02/400242_aeae20a6_120x120.jpg
400297,Park Court development site,E Gammie,2007-04-13,52.401897,-1.514918,1.58,http://s1.geograph.org.uk/photos/40/02/400297_39fa3581_120x120.jpg
416379,"Stop lock and bridge, Hawkesbury Junction",David Martin,2005-08-27,52.457795,-1.46824,3.76,http://s3.geograph.org.uk/photos/41/63/416379_598225e2_120x120.jpg
419891,"University Hospital, Coventry",Stephen McKay,2007-05-01,52.422056,-1.438378,1.00,http://s3.geograph.org.uk/photos/41/98/419891_97868edf_120x120.jpg
422775,Urban bridleway,E Gammie,2007-05-04,52.409408,-1.550117,4.47,http://s3.geograph.org.uk/photos/42/27/422775_055e185b_120x120.jpg
423297,"Wild flower meadow, Canley Ford",E Gammie,2007-05-04,52.390127,-1.539292,3.75,http://s1.geograph.org.uk/photos/42/32/423297_03251c13_120x120.jpg
424871,"Boundary marker, Allesley",E Gammie,2007-05-06,52.426753,-1.572883,1.83,http://s3.geograph.org.uk/photos/42/48/424871_dace2064_120x120.jpg
443800,Air Ambulance at  Walsgrave Hospital,Helga Perry,2005-00-00,52.421449,-1.443238,1.56,http://s0.geograph.org.uk/photos/44/38/443800_4a1dd7f3_120x120.jpg
443802,Demolition of Walsgrave Hospital,Helga Perry,2006-08-09,52.421176,-1.442506,1.17,http://s2.geograph.org.uk/photos/44/38/443802_c5b837c5_120x120.jpg
443805,University Hospital Coventry construction work,Helga Perry,2006-00-00,52.421351,-1.441328,0.93,http://s1.geograph.org.uk/photos/44/38/443805_6087fc63_120x120.jpg
443807,Demolition of the Caludon Centre,Helga Perry,2005-10-00,52.421526,-1.440443,0.84,http://s3.geograph.org.uk/photos/44/38/443807_7f597216_120x120.jpg
462878,"Hawkesbury Junction, Coventry Canal, Warwickshire",Dr Neil Clifton,1977-06-29,52.457257,-1.468688,2.90,http://s2.geograph.org.uk/photos/46/28/462878_e9653def_120x120.jpg
462895,"Bishop Street Basin, Coventry",Dr Neil Clifton,1977-06-30,52.413749,-1.511259,1.77,http://s3.geograph.org.uk/photos/46/28/462895_302e7937_120x120.jpg
462906,"Bishop Street Basin, Coventry Canal",Dr Neil Clifton,1977-06-30,52.413392,-1.511851,2.05,http://s2.geograph.org.uk/photos/46/29/462906_643874d5_120x120.jpg
464320,Coventry Meriden Hospital across the Walsgrave Building Site,Helga Perry,2005-00-00,52.421173,-1.441771,1.23,http://s0.geograph.org.uk/photos/46/43/464320_8d049844_120x120.jpg
464325,Caludon Centre Demolition,Helga Perry,2005-10-00,52.421353,-1.441916,0.97,http://s1.geograph.org.uk/photos/46/43/464325_987c0d48_120x120.jpg
464331,Preparing to demolish the Caludon Centre,Helga Perry,2005-00-00,52.421142,-1.435301,0.85,http://s3.geograph.org.uk/photos/46/43/464331_0a8ea408_120x120.jpg
467563,The brookstray,E Gammie,2007-06-15,52.411425,-1.560534,3.89,http://s3.geograph.org.uk/photos/46/75/467563_fc6f6722_120x120.jpg
467581,Not speaking,E Gammie,2007-06-15,52.411865,-1.558031,4.32,http://s1.geograph.org.uk/photos/46/75/467581_bec413f5_120x120.jpg
467595,Flooding at University Hospital Coventry,Helga Perry,2007-06-15,52.420709,-1.438836,1.75,http://s3.geograph.org.uk/photos/46/75/467595_d07522a6_120x120.jpg
467605,Flooded access road at University Hospital Coventry,Helga Perry,2007-06-15,52.42008,-1.438844,1.96,http://s1.geograph.org.uk/photos/46/76/467605_1e43bb58_120x120.jpg
467611,University Hospital Coventry - car park under water,Helga Perry,2007-06-15,52.420259,-1.438695,3.99,http://s3.geograph.org.uk/photos/46/76/467611_7aadd334_120x120.jpg
467618,Flood at University Hospital Coventry,Helga Perry,2007-06-15,52.421211,-1.450005,1.07,http://s2.geograph.org.uk/photos/46/76/467618_5bd0783a_120x120.jpg
477831,Lake View Park,E Gammie,2007-06-26,52.411791,-1.538625,4.06,http://s3.geograph.org.uk/photos/47/78/477831_a61ab71f_120x120.jpg
477844,Towards Lake View Road,E Gammie,2007-06-26,52.412228,-1.535387,2.95,http://s0.geograph.org.uk/photos/47/78/477844_7f0b3ca1_120x120.jpg
481355,Baginton Road remnant,E Gammie,2007-06-29,52.377411,-1.506959,4.13,http://s3.geograph.org.uk/photos/48/13/481355_33f5f5c3_120x120.jpg
481779,"Erithway Road, Green Lane",E Gammie,2007-06-29,52.378713,-1.517669,1.56,http://s3.geograph.org.uk/photos/48/17/481779_a5d6595a_120x120.jpg
481800,"The Italian Job, Green Lane",E Gammie,2007-06-29,52.383254,-1.528932,1.86,http://s0.geograph.org.uk/photos/48/18/481800_2cf4008b_120x120.jpg
482920,Hawkesbury Junction 1978 (3),Dr Neil Clifton,1978-07-06,52.45735,-1.469276,2.84,http://s0.geograph.org.uk/photos/48/29/482920_3159f8cb_120x120.jpg
486754,"Old smithy, Kirby Corner",E Gammie,2007-07-06,52.38386,-1.569917,2.46,http://s2.geograph.org.uk/photos/48/67/486754_1ba8bce2_120x120.jpg
495056,Godiva Carnival Procession passing Top Green,E Gammie,2007-07-14,52.396961,-1.517029,3.73,http://s0.geograph.org.uk/photos/49/50/495056_2949f3cb_120x120.jpg
495064,Little devils heading for the Memorial Park,E Gammie,2007-07-14,52.396602,-1.517327,3.12,http://s0.geograph.org.uk/photos/49/50/495064_7e36fe31_120x120.jpg
495074,"Mind if I park my sheep, horse and elephant here?",E Gammie,2007-07-14,52.392058,-1.527369,2.53,http://s2.geograph.org.uk/photos/49/50/495074_972d5378_120x120.jpg
495079,Taking a breather in the Warwick Road,E Gammie,2007-07-14,52.396602,-1.517327,2.23,http://s3.geograph.org.uk/photos/49/50/495079_bb0e300f_120x120.jpg
501005,Towards Spon End from Spon Street bridge,E Gammie,2007-07-21,52.408143,-1.525433,2.73,http://s1.geograph.org.uk/photos/50/10/501005_13a6e6c2_120x120.jpg
501037,Upper Spon Street from Spon Street bridge,E Gammie,2007-07-21,52.40823,-1.524697,2.13,http://s1.geograph.org.uk/photos/50/10/501037_30d4ab21_120x120.jpg
506448,"Black Swan Terrace, Upper Spon Street",E Gammie,2007-07-21,52.408315,-1.52352,2.10,http://s0.geograph.org.uk/photos/50/64/506448_ee90964e_120x120.jpg
515257,The church with the blue roof,E Gammie,2007-08-04,52.405393,-1.534723,2.23,http://s1.geograph.org.uk/photos/51/52/515257_726cd687_120x120.jpg
534246,"Autumn, Westwood Way, Westwood Business Park",Niki Walton,2006-11-02,52.387754,-1.577961,2.55,http://s2.geograph.org.uk/photos/53/42/534246_e1284537_120x120.jpg
534261,"Pathway, Westwood",Niki Walton,2006-11-02,52.386791,-1.58517,3.54,http://s1.geograph.org.uk/photos/53/42/534261_6a124e7e_120x120.jpg
534269,"Snowy Rooftops, Holbrooks",Niki Walton,2007-02-09,52.44827,-1.511024,2.49,http://s1.geograph.org.uk/photos/53/42/534269_9edd22b2_120x120.jpg
534290,Looking north-east from West Orchards Car Park,Niki Walton,2007-03-09,52.410771,-1.508499,0.70,http://s2.geograph.org.uk/photos/53/42/534290_987a68fa_120x120.jpg
534303,Spiral driveway up to West Orchards Car Park,Niki Walton,2007-03-09,52.409527,-1.512188,1.92,http://s3.geograph.org.uk/photos/53/43/534303_6b722e50_120x120.jpg
534324,"Glass Bridge, Millennium Place, Coventry City Centre",Niki Walton,2007-03-09,52.41077,-1.508352,1.01,http://s0.geograph.org.uk/photos/53/43/534324_4162dbec_120x120.jpg
534341,Millennium Place,Niki Walton,2007-03-09,52.411218,-1.508053,1.45,http://s1.geograph.org.uk/photos/53/43/534341_4ff2dbfd_120x120.jpg
534347,"Glass Bridge, Millennium Place",Niki Walton,2007-03-09,52.41041,-1.508356,1.65,http://s3.geograph.org.uk/photos/53/43/534347_528cbfbb_120x120.jpg
534350,Lady Herbert's Gardens,Niki Walton,2007-03-09,52.411128,-1.507907,2.16,http://s2.geograph.org.uk/photos/53/43/534350_abeda5df_120x120.jpg
534368,"Medieval Remains, Priory Gardens",Niki Walton,2007-03-09,52.408883,-1.508667,3.39,http://s0.geograph.org.uk/photos/53/43/534368_b4f89afe_120x120.jpg
534374,View from inside the ruins of Coventry Cathedral,Niki Walton,2007-03-09,52.40851,-1.50529,3.06,http://s2.geograph.org.uk/photos/53/43/534374_c98add2f_120x120.jpg
534382,Holy Trinity Church,Niki Walton,2007-03-09,52.408615,-1.508964,3.33,http://s2.geograph.org.uk/photos/53/43/534382_532d1ba1_120x120.jpg
534412,"Surviving glass fragments, Coventry Cathedral",Niki Walton,2007-03-09,52.408513,-1.506025,3.39,http://s0.geograph.org.uk/photos/53/44/534412_99b88d43_120x120.jpg
534432,"Drapers' Hall, Bayley Lane",Niki Walton,2007-03-09,52.407619,-1.507358,2.05,http://s0.geograph.org.uk/photos/53/44/534432_19a47118_120x120.jpg
534442,Coventry Cathedral,Niki Walton,2007-03-09,52.408508,-1.504996,3.21,http://s2.geograph.org.uk/photos/53/44/534442_6387e219_120x120.jpg
534452,Old and New Coventry,Niki Walton,2007-03-09,52.408348,-1.509555,3.04,http://s0.geograph.org.uk/photos/53/44/534452_e8a78a6d_120x120.jpg
534467,Whittle Arches as seen from Priory Place,Niki Walton,2007-03-09,52.411492,-1.508932,1.40,http://s3.geograph.org.uk/photos/53/44/534467_569fea75_120x120.jpg
535817,The Old Grammar School,E Gammie,2007-08-25,52.41042,-1.510708,2.67,http://s1.geograph.org.uk/photos/53/58/535817_8f391095_120x120.jpg
536857,"Memorial, St Michael's",E Gammie,2007-08-25,52.407711,-1.507798,2.18,http://s1.geograph.org.uk/photos/53/68/536857_1981f2b7_120x120.jpg
552026,Doubling completed,David Stowell,2007-08-28,52.392733,-1.516487,3.02,http://s2.geograph.org.uk/photos/55/20/552026_eba347aa_120x120.jpg
554599,Broadgate and Precincts,E Gammie,2007-09-13,52.408007,-1.514116,1.10,http://s3.geograph.org.uk/photos/55/45/554599_34cff6c7_120x120.jpg
555854,"West window, Coventry Cathedral",E Gammie,2007-09-13,52.408159,-1.507352,0.76,http://s2.geograph.org.uk/photos/55/58/555854_4ae3b2f1_120x120.jpg
555860,"Engraving of St Cuthbert, Coventry Cathedral",E Gammie,2007-08-25,52.408069,-1.507353,2.44,http://s0.geograph.org.uk/photos/55/58/555860_f2098f13_120x120.jpg
555875,Holy Trinity spire,E Gammie,2007-09-13,52.408524,-1.508818,4.14,http://s3.geograph.org.uk/photos/55/58/555875_4dc47372_120x120.jpg
557164,Little Park Street to Greyfriars,E Gammie,2007-09-13,52.405839,-1.51164,1.10,http://s0.geograph.org.uk/photos/55/71/557164_663c59f1_120x120.jpg
557179,South-west to Greyfriars,E Gammie,1975-06-11,52.405929,-1.511639,1.39,http://s3.geograph.org.uk/photos/55/71/557179_4ddf0f15_120x120.jpg
560174,City centre and Coundon,E Gammie,1975-06-11,52.409352,-1.513219,1.62,http://s2.geograph.org.uk/photos/56/01/560174_e6e427a7_120x120.jpg
560185,Holy Trinity and Hillman House,E Gammie,2007-09-13,52.409531,-1.513217,3.17,http://s1.geograph.org.uk/photos/56/01/560185_db6d2cc7_120x120.jpg
570457,Coventry Canal Basin looking towards entrance,Bill Sibley,2007-09-03,52.41375,-1.511553,2.45,http://s1.geograph.org.uk/photos/57/04/570457_20406998_120x120.jpg
570472,"Old Loading Crane, Coventry Canal Basin",Bill Sibley,2007-09-03,52.413574,-1.512437,1.18,http://s0.geograph.org.uk/photos/57/04/570472_34a0ee9f_120x120.jpg
570507,"Statue of James Brindley, Coventry Canal Basin",Bill Sibley,2007-09-03,52.413304,-1.51244,1.87,http://s3.geograph.org.uk/photos/57/05/570507_c4661a49_120x120.jpg
570541,Coventry Canal Basin viewed from near entrance,Bill Sibley,2007-09-03,52.413303,-1.512146,2.90,http://s1.geograph.org.uk/photos/57/05/570541_1f9c6b7d_120x120.jpg
582139,Welcome to Coventry,Roger Miller,2007-10-10,52.401537,-1.514775,2.07,http://s3.geograph.org.uk/photos/58/21/582139_8fd6508a_120x120.jpg
583294,"Radford Common, Radford Road",Niki Walton,2007-10-12,52.424322,-1.524818,2.91,http://s2.geograph.org.uk/photos/58/32/583294_add9c757_120x120.jpg
583205,"Pathway, Westwood Heath",Niki Walton,2007-10-05,52.386786,-1.583847,3.80,http://s1.geograph.org.uk/photos/58/32/583205_57f96351_120x120.jpg
583212,Westwood Club and Reading Rooms,Niki Walton,2007-10-05,52.385337,-1.580775,1.36,http://s0.geograph.org.uk/photos/58/32/583212_cbb55592_120x120.jpg
583215,"House, Westwood Heath Road",Niki Walton,2007-10-05,52.38634,-1.584733,3.89,http://s3.geograph.org.uk/photos/58/32/583215_18e56855_120x120.jpg
583220,"Driveway, Westwood Heath Road",Niki Walton,2007-10-05,52.386161,-1.585028,4.34,http://s0.geograph.org.uk/photos/58/32/583220_5f81a990_120x120.jpg
583225,"Network Rail, Westwood Heath Road, Coventry",Niki Walton,2007-10-05,52.386711,-1.587962,1.87,http://s1.geograph.org.uk/photos/58/32/583225_0aa3a149_120x120.jpg
583234,"St Francis of Assisi Church, Links Road, Radford, Coventry",Niki Walton,2007-10-12,52.431043,-1.519304,2.17,http://s2.geograph.org.uk/photos/58/32/583234_cbb46577_120x120.jpg
583239,"Jubilee Crescent, Radford, Coventry",Niki Walton,2007-10-12,52.430766,-1.517542,2.28,http://s3.geograph.org.uk/photos/58/32/583239_f01b5f5b_120x120.jpg
583246,"Jubilee Health Centre and Tesco Metro, Jubilee Crescent, Radford, Coventry",Niki Walton,2007-10-12,52.431124,-1.517244,1.18,http://s2.geograph.org.uk/photos/58/32/583246_164b75d9_120x120.jpg
583249,"Catesby Road, Radford, Coventry",Niki Walton,2007-10-12,52.431574,-1.517386,1.24,http://s1.geograph.org.uk/photos/58/32/583249_2cbec15e_120x120.jpg
583253,"North-East Side, Jubilee Crescent, Radford, Coventry",Niki Walton,2007-10-12,52.431033,-1.516951,1.53,http://s1.geograph.org.uk/photos/58/32/583253_d11f64d3_120x120.jpg
583261,"South-East Side, Jubilee Crescent, Radford, Coventry",Niki Walton,2007-10-12,52.430496,-1.517398,1.17,http://s1.geograph.org.uk/photos/58/32/583261_40c7b487_120x120.jpg
583269,"St Nicholas' Church, Radford",Niki Walton,2007-10-12,52.422876,-1.522922,1.37,http://s1.geograph.org.uk/photos/58/32/583269_21286fb4_120x120.jpg
583285,Looking down Beake Avenue from Radford Common,Niki Walton,2007-10-12,52.424405,-1.523053,1.23,http://s1.geograph.org.uk/photos/58/32/583285_9a32b640_120x120.jpg
583290,"Steps, Radford Common",Niki Walton,2007-10-12,52.423509,-1.523651,2.06,http://s2.geograph.org.uk/photos/58/32/583290_bf110eba_120x120.jpg
583297,"Terraced Cottages, Engleton Road",Niki Walton,2007-10-12,52.423148,-1.523508,2.51,http://s1.geograph.org.uk/photos/58/32/583297_96d5ec82_120x120.jpg
583305,Engleton Road from Radford Common,Niki Walton,2007-10-12,52.422882,-1.524246,2.21,http://s1.geograph.org.uk/photos/58/33/583305_b9bda52e_120x120.jpg
583313,"Monarch Pharmacy, Radford Road",Niki Walton,2007-10-12,52.423775,-1.522913,1.12,http://s1.geograph.org.uk/photos/58/33/583313_f0d39e9e_120x120.jpg
583324,Looking south down Moseley Avenue,Niki Walton,2007-10-12,52.420098,-1.525158,2.10,http://s0.geograph.org.uk/photos/58/33/583324_55aa16fd_120x120.jpg
583327,"View across Crampers Field, Radford",Niki Walton,2007-10-12,52.417222,-1.525189,1.95,http://s3.geograph.org.uk/photos/58/33/583327_23716d49_120x120.jpg
583333,"Crampers Field and Moseley Avenue, Radford, Coventry",Niki Walton,2007-10-12,52.417582,-1.525479,2.37,http://s1.geograph.org.uk/photos/58/33/583333_4456fd7e_120x120.jpg
583335,"Rialto, Moseley Avenue",Niki Walton,2007-10-12,52.417587,-1.526655,1.38,http://s3.geograph.org.uk/photos/58/33/583335_10bb1fa1_120x120.jpg
583342,"Moseley Avenue Shops, Radford",Niki Walton,2007-10-12,52.416866,-1.526222,1.12,http://s2.geograph.org.uk/photos/58/33/583342_869ea79d_120x120.jpg
583345,"Date detail, Moseley Avenue",Niki Walton,2007-10-12,52.416507,-1.526226,1.53,http://s1.geograph.org.uk/photos/58/33/583345_92dcfc60_120x120.jpg
583349,"Shops, Barker's Butts Lane, Coundon, Coventry",Niki Walton,2007-10-12,52.415787,-1.526086,1.63,http://s1.geograph.org.uk/photos/58/33/583349_e8279df8_120x120.jpg
583350,"LloydsTSB, Radford Branch",Niki Walton,2007-10-12,52.416151,-1.527112,1.92,http://s2.geograph.org.uk/photos/58/33/583350_26b52005_120x120.jpg
583354,"Bridge, Central Six Retail Park",Niki Walton,2007-10-12,52.401458,-1.517568,1.03,http://s2.geograph.org.uk/photos/58/33/583354_223550e7_120x120.jpg
583356,Looking north from Central Six,Niki Walton,2007-10-12,52.402358,-1.517852,2.60,http://s0.geograph.org.uk/photos/58/33/583356_6a6d2daa_120x120.jpg
583360,"Central Six Retail Park, Coventry",Niki Walton,2007-10-12,52.402628,-1.517849,1.31,http://s0.geograph.org.uk/photos/58/33/583360_424b5722_120x120.jpg
583364,"Spencer Park, Earlsdon, Coventry",Niki Walton,2007-10-12,52.400746,-1.519193,4.13,http://s0.geograph.org.uk/photos/58/33/583364_3ce06e2a_120x120.jpg
583366,"The Rocket Public House, Warwick Road",Niki Walton,2007-10-12,52.401448,-1.515069,2.24,http://s2.geograph.org.uk/photos/58/33/583366_874a9baf_120x120.jpg
583370,St Mary Magdalen Church,Niki Walton,2007-10-12,52.405572,-1.534574,2.31,http://s2.geograph.org.uk/photos/58/33/583370_2ef67b65_120x120.jpg
583371,St Mary Magdalen Church,Niki Walton,2007-10-12,52.405392,-1.534576,1.95,http://s3.geograph.org.uk/photos/58/33/583371_8aec1518_120x120.jpg
583372,"Church of the Precious Blood and All Souls, Kingsland Avenue",Niki Walton,2007-10-12,52.404865,-1.537669,2.28,http://s0.geograph.org.uk/photos/58/33/583372_0a9e70e7_120x120.jpg
583376,"Hearsall Baptist Church Buildings, Queensland Avenue",Niki Walton,2007-10-12,52.405219,-1.536195,1.90,http://s0.geograph.org.uk/photos/58/33/583376_0eeb15b3_120x120.jpg
583412,"Bennett's Road North, Keresley Village",Niki Walton,2007-10-12,52.460959,-1.53664,1.71,http://s0.geograph.org.uk/photos/58/34/583412_826b634e_120x120.jpg
583417,"House, former shop, Keresley Village",Niki Walton,2007-10-12,52.459698,-1.535918,2.10,http://s1.geograph.org.uk/photos/58/34/583417_64122d9d_120x120.jpg
583431,Coventry Building Society,Niki Walton,2007-10-12,52.445211,-1.51047,1.19,http://s3.geograph.org.uk/photos/58/34/583431_a838f343_120x120.jpg
583435,Holbrook Buildings,Niki Walton,2007-10-12,52.444942,-1.510767,1.55,http://s3.geograph.org.uk/photos/58/34/583435_ca1bf9e0_120x120.jpg
583441,"Lyric Building, Holbrook Lane",Niki Walton,2007-10-12,52.446287,-1.509869,1.19,http://s1.geograph.org.uk/photos/58/34/583441_b8f6a7fd_120x120.jpg
583446,"Parade of Shops, Holbrook Lane",Niki Walton,2007-10-12,52.444491,-1.510331,1.19,http://s2.geograph.org.uk/photos/58/34/583446_a10e53c0_120x120.jpg
583450,Holbrooks Evangelical Church,Niki Walton,2007-10-12,52.446023,-1.511196,1.58,http://s2.geograph.org.uk/photos/58/34/583450_47797b5d_120x120.jpg
598380,A429 Kenilworth Road,E Gammie,2007-10-29,52.391261,-1.530463,3.49,http://s0.geograph.org.uk/photos/59/83/598380_dc2d303f_120x120.jpg
598381,Memorial Park playing fields,E Gammie,2007-10-29,52.391044,-1.521061,4.25,http://s1.geograph.org.uk/photos/59/83/598381_8354023b_120x120.jpg
601843,A429 Kenilworth Road,E Gammie,2007-11-02,52.374243,-1.546655,3.67,http://s3.geograph.org.uk/photos/60/18/601843_d1f09ee7_120x120.jpg
601844,A429 Kenilworth Road,E Gammie,2007-11-02,52.37899,-1.542052,3.73,http://s0.geograph.org.uk/photos/60/18/601844_14c08f75_120x120.jpg
601849,A429 Kenilworth Road,E Gammie,2007-11-02,52.370214,-1.550956,3.96,http://s1.geograph.org.uk/photos/60/18/601849_41b34b13_120x120.jpg
601851,Cryfield Grange Road,E Gammie,2007-11-02,52.36816,-1.554501,3.69,http://s3.geograph.org.uk/photos/60/18/601851_70b739a8_120x120.jpg
601853,Trees on Kenilworth Road (A429),E Gammie,2007-11-02,52.369672,-1.550227,3.99,http://s1.geograph.org.uk/photos/60/18/601853_33c83a12_120x120.jpg
601859,Cannon Hill Road,E Gammie,2007-11-02,52.38205,-1.542755,3.97,http://s3.geograph.org.uk/photos/60/18/601859_0f7bbaa8_120x120.jpg
611228,The Harvester Pub,Bill Henderson,2007-11-11,52.379255,-1.518104,1.48,http://s0.geograph.org.uk/photos/61/12/611228_b1b8570b_120x120.jpg
611232,West Orchard United Reformed Church,Bill Henderson,2007-11-11,52.384902,-1.514075,2.58,http://s0.geograph.org.uk/photos/61/12/611232_54f953cf_120x120.jpg
611233,"Shopping Arcade, Baginton Road",Bill Henderson,2007-11-11,52.384635,-1.514813,1.36,http://s1.geograph.org.uk/photos/61/12/611233_851abfa8_120x120.jpg
611235,Leamington Road,Bill Henderson,2007-11-11,52.381317,-1.516759,2.37,http://s3.geograph.org.uk/photos/61/12/611235_176c4961_120x120.jpg
611238,Midland Sports Centre for the Disabled,Bill Henderson,2007-11-11,52.393757,-1.597889,0.85,http://s2.geograph.org.uk/photos/61/12/611238_ab7fffce_120x120.jpg
611240,Tile Hill Station,Bill Henderson,2007-11-11,52.394923,-1.597144,1.41,http://s0.geograph.org.uk/photos/61/12/611240_68c6f6c1_120x120.jpg
612286,Coventry Station,Ian Rob,2007-11-14,52.399913,-1.51347,0.93,http://s2.geograph.org.uk/photos/61/22/612286_c21b5eec_120x120.jpg
612290,Coventry Station,Ian Rob,2007-11-14,52.399907,-1.512,1.67,http://s2.geograph.org.uk/photos/61/22/612290_3f34112e_120x120.jpg
612297,Coventry-The Hiron Bridge,Ian Rob,2007-11-14,52.395317,-1.510875,1.70,http://s1.geograph.org.uk/photos/61/22/612297_b71bb604_120x120.jpg
612303,Coventry-Daventry Road,Ian Rob,2007-11-14,52.393596,-1.507661,0.85,http://s3.geograph.org.uk/photos/61/23/612303_9cb0a683_120x120.jpg
612309,Coventry-London Road Cemetery,Ian Rob,2007-11-14,52.401566,-1.500223,3.61,http://s1.geograph.org.uk/photos/61/23/612309_bb4782e6_120x120.jpg
612312,Coventry-London Road Cemetery,Ian Rob,2007-11-14,52.399858,-1.500242,3.83,http://s0.geograph.org.uk/photos/61/23/612312_648fa9cf_120x120.jpg
612314,Coventry-Short Street,Ian Rob,2007-11-14,52.403296,-1.505348,1.88,http://s2.geograph.org.uk/photos/61/23/612314_005e10b5_120x120.jpg
612317,Coventry-Parkside Spiritualist Church,Ian Rob,2007-11-14,52.403302,-1.506818,1.51,http://s1.geograph.org.uk/photos/61/23/612317_90cff469_120x120.jpg
613340,"Curving oak, Allesley Park",E Gammie,2007-11-15,52.420152,-1.562359,4.46,http://s0.geograph.org.uk/photos/61/33/613340_d752fa47_120x120.jpg
613370,Allesley village and Coventry Hill Hotel,E Gammie,2007-11-15,52.424586,-1.570256,2.99,http://s2.geograph.org.uk/photos/61/33/613370_1e34e672_120x120.jpg
613401,"Winsford Avenue, Allesley Park",E Gammie,2007-11-15,52.414123,-1.560949,1.34,http://s1.geograph.org.uk/photos/61/34/613401_4e45c185_120x120.jpg
613421,"Winsford Avenue, Allesley Park",E Gammie,2007-11-15,52.413112,-1.554931,1.24,http://s1.geograph.org.uk/photos/61/34/613421_6a848e44_120x120.jpg
613439,"Horse chestnut, Allesley Park",E Gammie,2007-11-15,52.417892,-1.559,4.37,http://s3.geograph.org.uk/photos/61/34/613439_e5ceee7d_120x120.jpg
613500,"All Saints spire, Allesley",E Gammie,2007-11-15,52.422831,-1.55748,3.74,http://s0.geograph.org.uk/photos/61/35/613500_2dc25841_120x120.jpg
613642,Coventry-Earlsdon,Ian Rob,2007-11-16,52.400872,-1.528157,2.10,http://s2.geograph.org.uk/photos/61/36/613642_0d7128e7_120x120.jpg
613657,Coventry- The Albany Earlsdon,Ian Rob,2007-11-16,52.403563,-1.526658,2.01,http://s1.geograph.org.uk/photos/61/36/613657_eb09e25d_120x120.jpg
613661,Earlsdon-Albany Road,Ian Rob,2007-11-16,52.402484,-1.52667,1.56,http://s1.geograph.org.uk/photos/61/36/613661_fd3d1475_120x120.jpg
614880,Coventry-New Union Street,Ian Rob,2007-11-16,52.405301,-1.51194,1.34,http://s0.geograph.org.uk/photos/61/48/614880_b28d28b0_120x120.jpg
614884,Coventry-Greyfriars Lane,Ian Rob,2007-11-16,52.405301,-1.51194,2.05,http://s0.geograph.org.uk/photos/61/48/614884_95bd11fa_120x120.jpg
614890,Earlsdon-Albany Road,Ian Rob,2007-11-16,52.399085,-1.531115,1.99,http://s2.geograph.org.uk/photos/61/48/614890_37bb6092_120x120.jpg
614895,Coventry-Earlsdon Library,Ian Rob,2007-11-16,52.400338,-1.529632,1.69,http://s3.geograph.org.uk/photos/61/48/614895_5095a51b_120x120.jpg
617071,Coventry-Christadelphian Hall,Ian Rob,2007-11-16,52.402628,-1.517849,1.37,http://s3.geograph.org.uk/photos/61/70/617071_ccb943f8_120x120.jpg
617076,Coventry-Central Six,Ian Rob,2007-11-16,52.40182,-1.518005,0.76,http://s0.geograph.org.uk/photos/61/70/617076_c395929f_120x120.jpg
617149,Coventry-Earlsdon Methodist Church,Ian Rob,2007-11-16,52.399707,-1.529198,2.47,http://s1.geograph.org.uk/photos/61/71/617149_2d739466_120x120.jpg
617155,Coventry-Cheylesmore,Ian Rob,2007-11-14,52.398187,-1.509079,1.51,http://s3.geograph.org.uk/photos/61/71/617155_b838bba8_120x120.jpg
623475,Farmland west of Allesley Green,E Gammie,2007-11-29,52.419957,-1.582947,3.33,http://s3.geograph.org.uk/photos/62/34/623475_9795da25_120x120.jpg
623522,Subway under the A45,E Gammie,2007-11-29,52.411071,-1.562155,2.11,http://s2.geograph.org.uk/photos/62/35/623522_a95badc6_120x120.jpg
623558,"Gazebo, Birmingham Road",E Gammie,2007-11-29,52.422383,-1.557926,2.98,http://s2.geograph.org.uk/photos/62/35/623558_ca889457_120x120.jpg
623584,"Oaks, Sherbourne valley",E Gammie,2007-11-29,52.42471,-1.555255,4.32,http://s0.geograph.org.uk/photos/62/35/623584_201b6ad6_120x120.jpg
624234,Stonehouse Lane,E Gammie,2007-11-29,52.421307,-1.558672,4.23,http://s2.geograph.org.uk/photos/62/42/624234_435005ed_120x120.jpg
625013,The brookstray and Allesley Park,E Gammie,2007-12-01,52.412325,-1.560966,2.32,http://s1.geograph.org.uk/photos/62/50/625013_876a0ece_120x120.jpg
625020,Waiting for the match,E Gammie,2007-12-01,52.411599,-1.558915,1.82,http://s0.geograph.org.uk/photos/62/50/625020_38ea4988_120x120.jpg
625031,Allesley Green from Park Hill Lane,E Gammie,2007-12-01,52.418396,-1.573845,3.26,http://s3.geograph.org.uk/photos/62/50/625031_45390f41_120x120.jpg
625049,Park Hill Lane,E Gammie,2007-12-01,52.420184,-1.571034,4.26,http://s1.geograph.org.uk/photos/62/50/625049_7ebe115a_120x120.jpg
627785,Ricoh Arena - Coventry,David M Jones,2007-12-05,52.448026,-1.495872,0.97,http://s1.geograph.org.uk/photos/62/77/627785_568f55d1_120x120.jpg
629048,Coventry-Swanswell Pool,Ian Rob,2007-12-07,52.411569,-1.505991,2.74,http://s0.geograph.org.uk/photos/62/90/629048_1e5ef9c2_120x120.jpg
629058,Coventry-The Swanswell Tavern,Ian Rob,2007-12-07,52.412462,-1.50451,1.19,http://s2.geograph.org.uk/photos/62/90/629058_ce3d79e0_120x120.jpg
629065,Coventry- Ford Street,Ian Rob,2007-12-07,52.409765,-1.504541,1.31,http://s1.geograph.org.uk/photos/62/90/629065_c26e582c_120x120.jpg
629464,Coventry-Stoney Stanton Road,Ian Rob,2007-12-07,52.416052,-1.503,2.46,http://s0.geograph.org.uk/photos/62/94/629464_2851f292_120x120.jpg
629466,Coventry-The Rose and Woodbine,Ian Rob,2007-12-07,52.415159,-1.50448,1.80,http://s2.geograph.org.uk/photos/62/94/629466_e01faee5_120x120.jpg
629467,Coventry-Eagle Street Mosque,Ian Rob,2007-12-07,52.41785,-1.50298,1.47,http://s3.geograph.org.uk/photos/62/94/629467_2d621e65_120x120.jpg
629481,Coventry-Saint Mark's Church,Ian Rob,2007-12-07,52.412474,-1.507451,2.43,http://s1.geograph.org.uk/photos/62/94/629481_d4c6af75_120x120.jpg
629482,Coventry-Cook Street Gate,Ian Rob,2007-12-07,52.411404,-1.509374,3.88,http://s2.geograph.org.uk/photos/62/94/629482_a824e31b_120x120.jpg
629486,Coventry-Lady Herbert's Homes,Ian Rob,2007-12-07,52.411492,-1.508932,2.32,http://s2.geograph.org.uk/photos/62/94/629486_a14837cd_120x120.jpg
629487,Coventry-The Elastic Inn,Ian Rob,2007-12-07,52.410208,-1.503066,1.42,http://s3.geograph.org.uk/photos/62/94/629487_fa79bbeb_120x120.jpg
629488,Coventry-Lower Ford Street,Ian Rob,2007-12-07,52.409759,-1.503071,1.62,http://s0.geograph.org.uk/photos/62/94/629488_d556fba6_120x120.jpg
630011,Coventry-Hindu Temple,Ian Rob,2007-12-07,52.420528,-1.498538,2.02,http://s3.geograph.org.uk/photos/63/00/630011_5aae425b_120x120.jpg
630026,Coventry-Hillfields,Ian Rob,2007-12-07,52.413159,-1.49921,1.09,http://s2.geograph.org.uk/photos/63/00/630026_1d461712_120x120.jpg
630053,Coventry-Saint Peter's Church,Ian Rob,2007-12-07,52.412534,-1.500246,1.97,http://s1.geograph.org.uk/photos/63/00/630053_9e48aead_120x120.jpg
630071,Coventry-The Foresters Public House,Ian Rob,2007-12-07,52.409938,-1.502922,1.80,http://s3.geograph.org.uk/photos/63/00/630071_e36c5c45_120x120.jpg
630689,Coventry-Sports and Leisure Centre,Ian Rob,2007-12-07,52.407967,-1.504561,1.31,http://s1.geograph.org.uk/photos/63/06/630689_986ed299_120x120.jpg
630699,Coventry-The Phoenix Public House,Ian Rob,2007-12-07,52.406169,-1.504581,1.92,http://s3.geograph.org.uk/photos/63/06/630699_995d625e_120x120.jpg
630706,Coventry-University Arts and Media Building,Ian Rob,2007-12-07,52.406175,-1.506051,1.33,http://s2.geograph.org.uk/photos/63/07/630706_6ec1f0b8_120x120.jpg
630719,Coventry-The Golden Cross,Ian Rob,2007-12-07,52.407087,-1.508981,1.90,http://s3.geograph.org.uk/photos/63/07/630719_f4ffcffe_120x120.jpg
630727,Coventry-Broadgate,Ian Rob,2007-12-07,52.407093,-1.510451,1.50,http://s3.geograph.org.uk/photos/63/07/630727_c9268e85_120x120.jpg
631080,"Father Forgive Ceremony, Coventry Cathedral",Jaap Jongejan,2007-05-04,52.407978,-1.507207,2.31,http://s0.geograph.org.uk/photos/63/10/631080_5bf2333b_120x120.jpg
631477,Coventry- Bayley Lane,Ian Rob,2007-12-07,52.407534,-1.508388,2.68,http://s1.geograph.org.uk/photos/63/14/631477_6b6f0ee4_120x120.jpg
631479,Coventry-Bayley Lane,Ian Rob,2007-12-07,52.407087,-1.508981,2.78,http://s3.geograph.org.uk/photos/63/14/631479_e96d5081_120x120.jpg
631489,Coventry-Saint John the Baptist Church,Ian Rob,2007-12-07,52.408016,-1.51632,2.75,http://s1.geograph.org.uk/photos/63/14/631489_4f7ebe7e_120x120.jpg
631494,Coventry-Corporation Street,Ian Rob,2007-12-07,52.408821,-1.515283,2.28,http://s2.geograph.org.uk/photos/63/14/631494_7d25a2ce_120x120.jpg
631504,Coventry- Spon Street,Ian Rob,2007-12-07,52.40874,-1.517636,2.09,http://s0.geograph.org.uk/photos/63/15/631504_218a3634_120x120.jpg
633397,Coventry-Lower Holyhead Road,Ian Rob,2007-12-07,52.408832,-1.518076,2.07,http://s1.geograph.org.uk/photos/63/33/633397_e5f690b8_120x120.jpg
633400,Coventry-Lower Holyhead Road,Ian Rob,2007-12-07,52.408022,-1.51779,1.29,http://s0.geograph.org.uk/photos/63/34/633400_0a49b742_120x120.jpg
634910,Grazing cattle by Canley Ford,E Gammie,2007-12-16,52.390582,-1.540757,3.78,http://s2.geograph.org.uk/photos/63/49/634910_ca563a79_120x120.jpg
640115,"Hearsall Common, Christmas 2007",E Gammie,2007-12-25,52.407065,-1.548671,4.83,http://s3.geograph.org.uk/photos/64/01/640115_692bb8b2_120x120.jpg
640116,"Hearsall Common, wet underfoot",E Gammie,2007-12-25,52.407155,-1.54867,4.76,http://s0.geograph.org.uk/photos/64/01/640116_c93f0802_120x120.jpg
640119,Hearsall Common,E Gammie,2007-12-25,52.407069,-1.549847,4.66,http://s3.geograph.org.uk/photos/64/01/640119_a5dddf22_120x120.jpg
646505,Christmas circus,E Gammie,2007-12-23,52.402361,-1.541076,1.73,http://s1.geograph.org.uk/photos/64/65/646505_3e8692fb_120x120.jpg
651684,Tree spires,E Gammie,2008-01-06,52.418696,-1.557521,4.25,http://s0.geograph.org.uk/photos/65/16/651684_cd5c448e_120x120.jpg
651694,Still life,E Gammie,2008-01-06,52.424895,-1.55643,4.07,http://s2.geograph.org.uk/photos/65/16/651694_67d9180d_120x120.jpg
651700,Wooden footbridge,E Gammie,2008-01-06,52.425794,-1.556421,4.02,http://s0.geograph.org.uk/photos/65/17/651700_f2a93f04_120x120.jpg
651707,Trees bordering Staircase Lane,E Gammie,2008-01-06,52.427416,-1.557434,4.16,http://s3.geograph.org.uk/photos/65/17/651707_cd4b9829_120x120.jpg
651718,Staircase Lane by Church Farm,E Gammie,2008-01-06,52.428039,-1.55581,3.88,http://s2.geograph.org.uk/photos/65/17/651718_d0a19741_120x120.jpg
651723,Pond by Staircase Lane,E Gammie,2008-01-06,52.428489,-1.5561,3.93,http://s3.geograph.org.uk/photos/65/17/651723_3576f1ca_120x120.jpg
651729,Staircase Lane,E Gammie,2008-01-06,52.429117,-1.555505,4.09,http://s1.geograph.org.uk/photos/65/17/651729_a5ef3450_120x120.jpg
651736,Back of the Jag,E Gammie,2008-01-06,52.430741,-1.557107,3.50,http://s0.geograph.org.uk/photos/65/17/651736_b1762037_120x120.jpg
651745,Staircase Lane and Coundon Wedge road,E Gammie,2008-01-06,52.430365,-1.552698,3.33,http://s1.geograph.org.uk/photos/65/17/651745_f90e98ed_120x120.jpg
651749,Northbrook Road,E Gammie,2008-01-06,52.433233,-1.550463,4.15,http://s1.geograph.org.uk/photos/65/17/651749_be89c895_120x120.jpg
651756,"No leaper, now",E Gammie,2008-01-06,52.434862,-1.553388,1.02,http://s0.geograph.org.uk/photos/65/17/651756_8b793de5_120x120.jpg
651761,"Staircase Lane, towards Allesley",E Gammie,2008-01-06,52.426699,-1.558177,4.44,http://s1.geograph.org.uk/photos/65/17/651761_e1f2a69f_120x120.jpg
157439,"Church Walk, Allesley",E Gammie,2006-04-23,52.422905,-1.553215,3.95,http://s3.geograph.org.uk/photos/15/74/157439_02b2d98c_120x120.jpg
652575,"Horses grazing, Sherbourne Valley",E Gammie,2008-01-06,52.424988,-1.557458,3.78,http://s3.geograph.org.uk/photos/65/25/652575_05e9f9f4_120x120.jpg
653268,Coventry-Broad Street,Ian Rob,2008-01-09,52.426796,-1.492585,1.29,http://s0.geograph.org.uk/photos/65/32/653268_0c0eef24_120x120.jpg
653274,Coventry-Paradise Foleshill,Ian Rob,2008-01-09,52.428942,-1.489913,2.13,http://s2.geograph.org.uk/photos/65/32/653274_e92a149c_120x120.jpg
653277,Coventry-London Road,Ian Rob,2008-01-09,52.397325,-1.49645,1.28,http://s1.geograph.org.uk/photos/65/32/653277_3e367a1d_120x120.jpg
654167,Coventry- Paradise Foleshill,Ian Rob,2008-01-09,52.427428,-1.493166,2.33,http://s3.geograph.org.uk/photos/65/41/654167_70e3e2e1_120x120.jpg
659793,Trees alongside the A45,E Gammie,2008-01-16,52.409897,-1.56055,3.94,http://s1.geograph.org.uk/photos/65/97/659793_17b082f4_120x120.jpg
661091,"City wall remnant, Ringway St Nicholas",E Gammie,2007-11-16,52.411597,-1.512753,2.33,http://s3.geograph.org.uk/photos/66/10/661091_f34a02e5_120x120.jpg
661100,"City wall remnant, Upper Well Street",E Gammie,2007-11-16,52.410702,-1.513645,3.46,http://s0.geograph.org.uk/photos/66/11/661100_8280909a_120x120.jpg
661103,"City wall bastion, Upper Well Street",E Gammie,2008-01-17,52.410701,-1.513498,3.12,http://s3.geograph.org.uk/photos/66/11/661103_6890b802_120x120.jpg
670146,Scots pines,E Gammie,2008-01-27,52.409492,-1.548646,3.74,http://s2.geograph.org.uk/photos/67/01/670146_f552814b_120x120.jpg
661807,The old Pool Meadow Bus Station,Alan Murray-Rust,1971-03-23,52.409864,-1.506598,1.53,http://s3.geograph.org.uk/photos/66/18/661807_76550aee_120x120.jpg
664540,Canley Halt and footbridge,E Gammie,2008-01-20,52.399238,-1.547281,1.39,http://s0.geograph.org.uk/photos/66/45/664540_1165f202_120x120.jpg
664547,Hearsall golf course,E Gammie,2008-01-20,52.391756,-1.54192,3.26,http://s3.geograph.org.uk/photos/66/45/664547_c5fd1f6b_120x120.jpg
664572,Cattle grazing by Canley Ford,E Gammie,2008-01-20,52.389511,-1.542678,2.92,http://s0.geograph.org.uk/photos/66/45/664572_13a76d22_120x120.jpg
664579,Waterlogged field by Canley Ford,E Gammie,2008-01-20,52.389602,-1.542824,3.46,http://s3.geograph.org.uk/photos/66/45/664579_879fd32d_120x120.jpg
664584,Footbridges at Canley Ford,E Gammie,2008-01-20,52.389869,-1.542234,2.64,http://s0.geograph.org.uk/photos/66/45/664584_371056b9_120x120.jpg
670144,Brookside and Glendower,E Gammie,2008-01-27,52.411473,-1.549508,2.95,http://s0.geograph.org.uk/photos/67/01/670144_fee620fb_120x120.jpg
670152,Guphill Avenue,E Gammie,2008-01-27,52.408241,-1.550717,3.57,http://s0.geograph.org.uk/photos/67/01/670152_a07708a1_120x120.jpg
670154,Guphill Avenue,E Gammie,2008-01-27,52.407251,-1.550286,4.23,http://s2.geograph.org.uk/photos/67/01/670154_ca5cbfb1_120x120.jpg
670157,Hearsall Common,E Gammie,2008-01-27,52.405898,-1.549124,5.05,http://s1.geograph.org.uk/photos/67/01/670157_4bae94fb_120x120.jpg
670158,Hearsall Common,E Gammie,2008-01-27,52.407247,-1.549404,3.68,http://s2.geograph.org.uk/photos/67/01/670158_f27a814d_120x120.jpg
693068,"Oak, Lake View Park",E Gammie,2008-02-17,52.41251,-1.538471,4.50,http://s0.geograph.org.uk/photos/69/30/693068_9b969619_120x120.jpg
703476,Coventry Station,Nigel Mykura,2008-02-24,52.400723,-1.513608,0.72,http://s0.geograph.org.uk/photos/70/34/703476_7f60b36a_120x120.jpg
703851,Coventry-Lower Holyhead Road,Ian Rob,2007-12-07,52.408022,-1.51779,1.32,http://s3.geograph.org.uk/photos/70/38/703851_b62e7444_120x120.jpg
718296,Whittle Arch-Coventry,Colin Babb,2006-09-16,52.409872,-1.508656,1.07,http://s0.geograph.org.uk/photos/71/82/718296_4199b3db_120x120.jpg
728387,Shelter in Memorial Park,Keith Williams,2008-03-16,52.393851,-1.526027,2.01,http://s3.geograph.org.uk/photos/72/83/728387_2dab6b20_120x120.jpg
728391,Shelter in Memorial Park,Keith Williams,2008-03-16,52.393851,-1.526027,2.00,http://s3.geograph.org.uk/photos/72/83/728391_e2d4fe38_120x120.jpg
729086,"St. John the Baptist Church, Coventry",Keith Williams,2008-01-05,52.408462,-1.515434,0.75,http://s2.geograph.org.uk/photos/72/90/729086_09e19d73_120x120.jpg
734286,"Hearsall Common, Easter 2008",E Gammie,2008-03-23,52.407249,-1.549845,4.60,http://s2.geograph.org.uk/photos/73/42/734286_78f25c37_120x120.jpg
735089,Bridges over the Coventry Canal,Keith Williams,2008-03-23,52.456379,-1.473261,2.85,http://s1.geograph.org.uk/photos/73/50/735089_e4b12f59_120x120.jpg
735090,The Greyhound at Hawkesbury Junction,Keith Williams,2008-03-23,52.457163,-1.467806,2.73,http://s2.geograph.org.uk/photos/73/50/735090_686e90a3_120x120.jpg
735093,Electricity Sub-Station near Hawkesbury Junction,Keith Williams,2008-03-23,52.455977,-1.463847,2.37,http://s1.geograph.org.uk/photos/73/50/735093_20d17f8e_120x120.jpg
735095,Coventry Canal passing under Alderman's Green Road,Keith Williams,2008-03-23,52.451763,-1.4664,3.33,http://s3.geograph.org.uk/photos/73/50/735095_b26d6261_120x120.jpg
735255,Woodland on Hearsall Common,Keith Williams,2008-03-23,52.406613,-1.548087,3.74,http://s3.geograph.org.uk/photos/73/52/735255_977d2183_120x120.jpg
735291,Houses on Earlsden Avenue North,Keith Williams,2008-03-23,52.404136,-1.535178,2.61,http://s3.geograph.org.uk/photos/73/52/735291_3bb4208e_120x120.jpg
735338,"Redevelopment Site, Allesley Old Road",Keith Williams,2008-03-19,52.40755,-1.534701,1.44,http://s2.geograph.org.uk/photos/73/53/735338_4f2cfb2c_120x120.jpg
737716,"The memorial, War Memorial Park",Keith Williams,2007-11-11,52.393461,-1.518684,3.83,http://s0.geograph.org.uk/photos/73/77/737716_206f82a0_120x120.jpg
738344,War Memorial Park in Autumn,Keith Williams,2007-11-11,52.394284,-1.522055,4.20,http://s0.geograph.org.uk/photos/73/83/738344_1dfc8596_120x120.jpg
738350,A much graffitied shed in War Memorial Park,Keith Williams,2007-11-11,52.393311,-1.525886,2.33,http://s2.geograph.org.uk/photos/73/83/738350_19a4bcdc_120x120.jpg
738648,"St Christopher's Church, Allesley Park",Keith Williams,2008-03-26,52.414762,-1.563589,1.45,http://s0.geograph.org.uk/photos/73/86/738648_6b61fee0_120x120.jpg
738651,Parade of shops,Keith Williams,2008-03-26,52.41521,-1.563143,1.61,http://s3.geograph.org.uk/photos/73/86/738651_c459e8d3_120x120.jpg
744521,Shultern Lane,E Gammie,2008-03-30,52.387663,-1.55313,3.20,http://s1.geograph.org.uk/photos/74/45/744521_71d72704_120x120.jpg
744533,Shultern Lane and Ivy Farm Lane,E Gammie,2008-03-30,52.386119,-1.548884,2.76,http://s1.geograph.org.uk/photos/74/45/744533_3a03f57c_120x120.jpg
744557,"Empty house, Ivy Farm Lane",E Gammie,2008-03-30,52.387195,-1.548139,2.54,http://s1.geograph.org.uk/photos/74/45/744557_65f62451_120x120.jpg
744604,"Millennium green, Canley Ford",E Gammie,2008-03-30,52.390768,-1.542371,3.25,http://s0.geograph.org.uk/photos/74/46/744604_fc9f0050_120x120.jpg
744620,Footpath across the golf course,E Gammie,2008-03-30,52.391838,-1.540009,2.62,http://s0.geograph.org.uk/photos/74/46/744620_f8752271_120x120.jpg
753073,"Copper beech in snow, at the end of Lord Street",Keith Williams,2008-04-06,52.407816,-1.533669,3.71,http://s1.geograph.org.uk/photos/75/30/753073_63b8ad40_120x120.jpg
753087,"Mount Street, Coventry",Keith Williams,2008-04-06,52.407191,-1.534851,1.50,http://s3.geograph.org.uk/photos/75/30/753087_27dfe11e_120x120.jpg
753103,"Hearsall Baptist Church Centre, Queensland Avenue",Keith Williams,2008-04-06,52.4054,-1.536634,1.94,http://s3.geograph.org.uk/photos/75/31/753103_c08b1e8a_120x120.jpg
753120,"The church with the blue roof, with a white roof",Keith Williams,2008-04-06,52.405392,-1.534576,2.43,http://s0.geograph.org.uk/photos/75/31/753120_808f6cd8_120x120.jpg
753132,A snow covered Lake View Park,Keith Williams,2008-04-06,52.410977,-1.537458,4.14,http://s0.geograph.org.uk/photos/75/31/753132_7782bf8a_120x120.jpg
753258,Part of the Central Six Retail Park,Keith Williams,2008-04-06,52.402285,-1.521822,1.26,http://s2.geograph.org.uk/photos/75/32/753258_ba64fe5c_120x120.jpg
753926,"Scots pine, Guphill Ave",E Gammie,2008-04-06,52.408153,-1.551012,4.22,http://s2.geograph.org.uk/photos/75/39/753926_d039d765_120x120.jpg
753932,April snowman,E Gammie,2008-04-06,52.390581,-1.540463,4.26,http://s0.geograph.org.uk/photos/75/39/753932_cf3f7837_120x120.jpg
759847,A429 Kenilworth Road,Alan Paxton,2008-01-13,52.382752,-1.538487,2.31,http://s3.geograph.org.uk/photos/75/98/759847_84037793_120x120.jpg
761205,"The Koco Building, Arches Industrial Estate, Spon End",Keith Williams,2008-04-12,52.409236,-1.52895,1.60,http://s1.geograph.org.uk/photos/76/12/761205_2bcb87d3_120x120.jpg
761215,"Bethel Evangelical Church, Spon End",Keith Williams,2008-04-12,52.40752,-1.527204,2.12,http://s3.geograph.org.uk/photos/76/12/761215_8dc3ef26_120x120.jpg
761227,"New Apostolic Church, Spon End",Keith Williams,2008-04-12,52.408046,-1.52367,1.59,http://s3.geograph.org.uk/photos/76/12/761227_19df4941_120x120.jpg
761287,"The Stag Public House, Coventry",Keith Williams,2008-04-12,52.411416,-1.512314,1.70,http://s3.geograph.org.uk/photos/76/12/761287_341fff78_120x120.jpg
761307,Coventry Post Office,Keith Williams,2008-04-12,52.4062,-1.51193,1.83,http://s3.geograph.org.uk/photos/76/13/761307_88e7f1a9_120x120.jpg
761318,"Apartment block on Queen Victoria Road, Coventry",Keith Williams,2008-04-12,52.405319,-1.51635,1.39,http://s2.geograph.org.uk/photos/76/13/761318_9c689967_120x120.jpg
761872,Old Dyers Arms,Keith Williams,2008-04-12,52.407247,-1.526178,1.98,http://s0.geograph.org.uk/photos/76/18/761872_3118f8b3_120x120.jpg
761911,Trees in Allesley Park,Keith Williams,2008-04-13,52.420795,-1.566176,4.65,http://s3.geograph.org.uk/photos/76/19/761911_188759bf_120x120.jpg
761932,Play area in Allesley Park,Keith Williams,2008-04-13,52.419784,-1.56001,3.82,http://s0.geograph.org.uk/photos/76/19/761932_86428b3d_120x120.jpg
761967,Allesley Village Jubilee Nature Reserve,Keith Williams,2008-04-13,52.420851,-1.557059,1.82,http://s3.geograph.org.uk/photos/76/19/761967_507fbe78_120x120.jpg
761997,Carved tree trunk in War Memorial Park,Keith Williams,2008-04-12,52.394553,-1.521758,3.53,http://s1.geograph.org.uk/photos/76/19/761997_26a77a69_120x120.jpg
762686,Coventry-French's Corner,Ian Rob,2008-04-14,52.407043,-1.498691,1.15,http://s2.geograph.org.uk/photos/76/26/762686_8442f8bd_120x120.jpg
762852,Coventry-River Sherbourne,Ian Rob,2008-04-14,52.402269,-1.496394,2.93,http://s0.geograph.org.uk/photos/76/28/762852_e71921f3_120x120.jpg
763423,Coventry-Far Gosford Street,Ian Rob,2008-04-14,52.407924,-1.494271,1.16,http://s3.geograph.org.uk/photos/76/34/763423_9622f02e_120x120.jpg
763437,Coventry-Gulson Road,Ian Rob,2008-04-14,52.406658,-1.492522,1.93,http://s1.geograph.org.uk/photos/76/34/763437_4155f13e_120x120.jpg
763464,Coventry-Far Gosford Street,Ian Rob,2008-04-14,52.407037,-1.497221,2.05,http://s0.geograph.org.uk/photos/76/34/763464_229518b4_120x120.jpg
763488,Coventry-Saint Anne and All Saints Church,Ian Rob,2008-04-14,52.402273,-1.497422,2.12,http://s0.geograph.org.uk/photos/76/34/763488_ca79a169_120x120.jpg
763631,Coventry Mind offices,Keith Williams,2008-04-12,52.408046,-1.52367,1.38,http://s3.geograph.org.uk/photos/76/36/763631_487ac83e_120x120.jpg
764033,Coventry-Whitefriars Olde Alehouse,Ian Rob,2008-04-14,52.40671,-1.504869,1.84,http://s1.geograph.org.uk/photos/76/40/764033_b5745842_120x120.jpg
765460,Coventry-Lower Stoke,Ian Rob,2008-04-14,52.399814,-1.489955,1.33,http://s0.geograph.org.uk/photos/76/54/765460_c8991376_120x120.jpg
765465,Coventry-The Charter House Pub,Ian Rob,2008-04-14,52.402253,-1.492719,2.43,http://s1.geograph.org.uk/photos/76/54/765465_de136a34_120x120.jpg
765474,Coventry-University Buildings,Ian Rob,2008-04-14,52.406157,-1.501641,1.30,http://s2.geograph.org.uk/photos/76/54/765474_3cfb1876_120x120.jpg
765776,"Bethesda Chapel, Allesley Park",Keith Williams,2008-04-16,52.412487,-1.556113,1.49,http://s0.geograph.org.uk/photos/76/57/765776_0ad3dc9e_120x120.jpg
765784,"West Coventry Christadelphian Ecclesia,  Whoberley Avenue",Keith Williams,2008-04-16,52.408688,-1.549977,1.57,http://s0.geograph.org.uk/photos/76/57/765784_90b20f31_120x120.jpg
766341,Memorial to site of Standard Triumph Factory,Jeff Tomlinson,2004-04-05,52.402767,-1.553124,1.82,http://s1.geograph.org.uk/photos/76/63/766341_8503d820_120x120.jpg
767085,Coventry Precinct Shopping Centre,Ian Rob,2008-04-14,52.408175,-1.511321,1.17,http://s1.geograph.org.uk/photos/76/70/767085_d52d8074_120x120.jpg
767938,Coventry-Gulson Road,Ian Rob,2008-04-14,52.405427,-1.499003,1.52,http://s2.geograph.org.uk/photos/76/79/767938_1692bcd1_120x120.jpg
767949,Coventry-Humber Avenue,Ian Rob,2008-04-14,52.402536,-1.495803,1.58,http://s1.geograph.org.uk/photos/76/79/767949_1844fb1c_120x120.jpg
767959,Coventry-Far Gosford Street,Ian Rob,2008-04-14,52.407037,-1.497221,2.26,http://s3.geograph.org.uk/photos/76/79/767959_540723c5_120x120.jpg
771022,Coventry-Lower Stoke,Ian Rob,2008-04-14,52.404023,-1.486084,1.46,http://s2.geograph.org.uk/photos/77/10/771022_a22c9cfd_120x120.jpg
771027,Coventry-Humber Road,Ian Rob,2008-04-14,52.403219,-1.487417,2.12,http://s3.geograph.org.uk/photos/77/10/771027_062c332c_120x120.jpg
771037,Coventry-Humber Road,Ian Rob,2008-04-14,52.402498,-1.486984,1.01,http://s1.geograph.org.uk/photos/77/10/771037_cac5e1ea_120x120.jpg
771329,Cattle troughs in War Memorial Park,Keith Williams,2008-04-12,52.390501,-1.520185,2.61,http://s1.geograph.org.uk/photos/77/13/771329_41cfbe36_120x120.jpg
774692,The River Sherbourne from Four Pounds Avenue,Keith Williams,2008-04-21,52.410971,-1.535841,4.65,http://s0.geograph.org.uk/photos/77/46/774692_81160a00_120x120.jpg
774706,Lake View Road,Keith Williams,2008-04-21,52.412321,-1.536268,1.99,http://s2.geograph.org.uk/photos/77/47/774706_82866b12_120x120.jpg
774716,The Holyhead,Keith Williams,2008-04-21,52.414283,-1.532277,1.94,http://s0.geograph.org.uk/photos/77/47/774716_abd51359_120x120.jpg
774726,Holyhead Road United Reformed Church,Keith Williams,2008-04-21,52.41383,-1.531253,1.30,http://s2.geograph.org.uk/photos/77/47/774726_79304294_120x120.jpg
774734,Morrison's on the Alvis Retail Park,Keith Williams,2008-04-21,52.412661,-1.531266,0.92,http://s2.geograph.org.uk/photos/77/47/774734_52a310de_120x120.jpg
774738,Mini garage on the Holyhead Road,Keith Williams,2008-04-21,52.412739,-1.528324,0.98,http://s2.geograph.org.uk/photos/77/47/774738_6e7cd208_120x120.jpg
774745,Bridge over the Holyhead Road,Keith Williams,2008-04-21,52.411651,-1.525984,1.72,http://s1.geograph.org.uk/photos/77/47/774745_54906f54_120x120.jpg
774751,"The Great Meeting House of the Unitarian Church, Holyhead Road",Keith Williams,2008-04-21,52.411372,-1.523781,1.40,http://s3.geograph.org.uk/photos/77/47/774751_8e109544_120x120.jpg
774796,Catholic Church of Christ the King and Our Lady of Lourdes,Keith Williams,2008-04-23,52.421755,-1.534845,1.21,http://s0.geograph.org.uk/photos/77/47/774796_f84f226b_120x120.jpg
774800,"The Cedars, Coundon",Keith Williams,2008-04-23,52.420225,-1.534273,1.92,http://s0.geograph.org.uk/photos/77/48/774800_5d1c3e97_120x120.jpg
774808,Coundon Methodist Church,Keith Williams,2008-04-23,52.42142,-1.541172,1.82,http://s0.geograph.org.uk/photos/77/48/774808_70dde113_120x120.jpg
785679,"From the footbridge at Canley station, looking towards Birmingham",Keith Williams,2008-05-02,52.399152,-1.548164,1.30,http://s3.geograph.org.uk/photos/78/56/785679_414e750e_120x120.jpg
785916,"From the footbridge at Canley station, looking towards Coventry",Keith Williams,2008-05-02,52.399593,-1.545954,2.07,http://s0.geograph.org.uk/photos/78/59/785916_be06deda_120x120.jpg
785921,"The Herald, Canley",Keith Williams,2008-05-02,52.398163,-1.548174,1.85,http://s1.geograph.org.uk/photos/78/59/785921_8abf52a3_120x120.jpg
785933,Entrance to Canley Crematorium and Garden Cemetery,Keith Williams,2008-05-02,52.388632,-1.54783,2.05,http://s1.geograph.org.uk/photos/78/59/785933_643e938e_120x120.jpg
785947,Shultern Lane,Keith Williams,2008-05-02,52.38603,-1.549326,2.46,http://s3.geograph.org.uk/photos/78/59/785947_d2609290_120x120.jpg
785950,Shultern Lane,Keith Williams,2008-05-02,52.387935,-1.553715,2.38,http://s2.geograph.org.uk/photos/78/59/785950_3e23c990_120x120.jpg
786156,"Church of St Joseph The Worker, De Montfort Way",Keith Williams,2008-05-02,52.387666,-1.553864,2.13,http://s0.geograph.org.uk/photos/78/61/786156_444f491c_120x120.jpg
786308,Warwick Arts Centre,Keith Williams,2008-05-02,52.379692,-1.561143,1.18,http://s0.geograph.org.uk/photos/78/63/786308_4afb0c1d_120x120.jpg
786413,"Rootes Building, University of Warwick",Keith Williams,2008-05-02,52.378164,-1.561158,0.91,http://s1.geograph.org.uk/photos/78/64/786413_8e646f80_120x120.jpg
786715,Towards Tocil lake,Keith Williams,2008-05-02,52.377338,-1.556759,4.43,http://s3.geograph.org.uk/photos/78/67/786715_4b42d974_120x120.jpg
786733,Junction of Gibbet Hill Road and Kenilworth Road,Keith Williams,2008-05-02,52.370931,-1.550361,1.87,http://s1.geograph.org.uk/photos/78/67/786733_c6498bd6_120x120.jpg
786751,Old boundary marker,Keith Williams,2008-05-02,52.370123,-1.55081,3.26,http://s3.geograph.org.uk/photos/78/67/786751_d1c36c30_120x120.jpg
787111,The boundary of Coventry on Duggins Lane,Keith Williams,2008-05-02,52.395657,-1.601399,2.98,http://s3.geograph.org.uk/photos/78/71/787111_353d3fcb_120x120.jpg
787115,Old and new postal street furniture,Keith Williams,2008-05-02,52.396457,-1.5986,2.49,http://s3.geograph.org.uk/photos/78/71/787115_36dbb397_120x120.jpg
787122,"Nickson Road, Canley",Keith Williams,2008-05-02,52.398747,-1.585057,1.46,http://s2.geograph.org.uk/photos/78/71/787122_c210f30f_120x120.jpg
787126,"The Fletch, Fletchamstead Highway",Keith Williams,2008-05-02,52.400903,-1.559757,1.41,http://s2.geograph.org.uk/photos/78/71/787126_266d2c4f_120x120.jpg
787137,The Golden Cross,Keith Williams,2008-05-02,52.407444,-1.508536,1.68,http://s1.geograph.org.uk/photos/78/71/787137_6135f16f_120x120.jpg
787142,Georgian postbox on Spon Street,Keith Williams,2008-05-02,52.408112,-1.517789,2.06,http://s2.geograph.org.uk/photos/78/71/787142_acb4a8e4_120x120.jpg
